city,companyFullName,companyLabelList,companySize,education,financeStage,firstType,industryField,jobNature,latitude,longitude,positionAdvantage,positionId,positionLables,positionName,salary,workYear
上海,德佑房地产经纪有限公司,"['技能培训', '带薪年假', '年度旅游', '岗位晋升']",500-2000人,本科,B轮,市场与销售,企业服务,全职,31.23043373,121.46309716,大数据 大挑战 有竞争力的薪资,1735598,['大数据'],数据分析专家,20k-30k,5-10年
杭州,浙江日报报业集团,"['带薪年假', '美女多', '定期体检', '人才公寓']",2000人以上,本科,不需要融资,开发/测试/运维类,"移动互联网,文化娱乐",全职,29.993662,119.993591,"五险一金,绩效奖金,通讯补贴,餐补",2780066,[],运营数据分析师,8k-15k,1-3年
北京,杏树林信息技术（北京）有限公司,"['A类人才', '股票期权', '带薪年假', '年度旅游']",150-500人,大专,C轮,开发/测试/运维类,"移动互联网,医疗健康",全职,39.893135,116.447045,"氛围好,追求卓越,免费三餐,免费下午茶",3690416,"['医疗健康', '大数据', '二次元', '活动运营']",数据分析师-医疗,10k-20k,1-3年
北京,支付宝(杭州)信息技术有限公司,"['年底双薪', '带薪年假', '股票期权', '绩效奖金']",2000人以上,本科,B轮,开发/测试/运维类,"金融,移动互联网",全职,39.993252,116.473198,"核心事业部,顶级的技术,大牛云集,学习晋升快",3692688,"['搜索', '机器学习', '数据图谱']",高德-NLP/推荐算法/数据挖掘/数据分析/图谱,25k-50k,3-5年
北京,优舫（北京）信息科技有限公司,"['绩效奖金', '通讯津贴', '带薪年假', '交通补助']",2000人以上,本科,D轮及以上,开发/测试/运维类,"电子商务,移动互联网",全职,39.991772,116.473585,福利待遇佳、企业平台好、晋升空间大,4083696,"['数据挖掘', '用户行为分析']",资深数据分析师-北京-13343,20k-30k,5-10年
上海,行吟信息科技（上海）有限公司,"['年度旅游', '节日礼物', '专项奖金', '带薪年假']",500-2000人,本科,C轮,开发/测试/运维类,"生活服务,电子商务",全职,31.231763,121.484443,发展空间大,3733900,"['电商', '大数据', '数据挖掘', 'SPSS']",数据分析师,10k-20k,不限
成都,北京智者天下科技有限公司,"['年底双薪', '股票期权', '带薪年假', '定期体检']",150-500人,本科,D轮及以上,开发/测试/运维类,"移动互联网,社交网络",全职,30.514431,104.068901,发展空间发、文化好,4121966,"['大数据', '数据挖掘', 'SPSS']",数据分析师,8k-16k,3-5年
郑州,郑州埃文计算机科技有限公司,"['节日礼物', '年底双薪', '带薪年假', '岗位晋升']",15-50人,大专,不需要融资,技术,"移动互联网,数据服务",全职,34.718333,113.743161,股权激励、奖励基金、五险一金、带薪年假,2290805,"['大数据', '数据挖掘']",数据分析师,5k-10k,1-3年
北京,北京京东世纪贸易有限公司,"['免费班车', '子女教育计划', '安居计划', '救助基金']",2000人以上,本科,上市公司,市场/商务/销售类,电子商务,全职,39.797041,116.513019,京东,3798368,"['项目管理', '大数据', 'SPSS', 'sas']",数据分析,7k-10k,1-3年
上海,中腾信金融信息服务（上海）有限公司,"['节日礼物', '年底多薪', '绩效奖金', '岗位晋升']",2000人以上,本科,不需要融资,市场/商务/销售类,金融,全职,31.248447,121.484128,"背景好,稳定,福利好,环境好",3582491,"['统计', '业务分析']",数据分析岗,6k-11k,1-3年
北京,北京趣加科技有限公司,"['绩效奖金', '股票期权', '专项奖金', '五险一金']",150-500人,本科,B轮,开发/测试/运维类,游戏,全职,39.983319,116.326841,"一线技术,国际团队,绩效奖金,福利超好",4004674,"['直播', '高级', '数据挖掘', '数据仓库', 'BI']",大数据分析开发工程师（重分析）-海外直播APP,13k-26k,3-5年
上海,上海阑途信息技术有限公司,"['技能培训', '节日礼物', '绩效奖金', '岗位晋升']",500-2000人,本科,D轮及以上,产品/需求/项目类,移动互联网,全职,31.131918,121.398332,"一年多次调,优秀团队,地铁周边",3807239,"['大数据', 'BI', '可视化', '业务运营']",资深数据分析师,20k-40k,5-10年
深圳,沃尔玛（中国）投资有限公司,[],2000人以上,本科,上市公司,产品/需求/项目类,"电子商务,其他",全职,22.544741,114.012206,"精英团队,成长空间,薪酬福利,外企文化",2960741,"['总监', '资深', 'BI', '商业']",高级数据分析经理,15k-25k,3-5年
北京,北京趣发芽科技有限公司,"['技能培训', '年底双薪', '股票期权', '带薪年假']",15-50人,本科,A轮,开发/测试/运维类,"移动互联网,社交网络",全职,39.977723,116.307761,"明星团队,福利待遇好,团队氛围好",2640294,"['游戏', '文化娱乐', '数据挖掘', 'Java']",数据分析师,8k-12k,1-3年
广州,广州牧云网络科技有限公司,"['节日礼物', '年底双薪', '专项奖金', '股票期权']",150-500人,本科,B轮,产品/需求/项目类,移动互联网,全职,0.0,0.0,"技能成长,团队氛围好,公司发展快,年轻人多",3406845,"['资深', '大数据', '数据挖掘', 'SPSS', 'sas']",数据分析师,10k-15k,3-5年
杭州,浙江日报报业集团,"['带薪年假', '美女多', '定期体检', '人才公寓']",2000人以上,本科,不需要融资,开发/测试/运维类,"移动互联网,文化娱乐",全职,29.993662,119.993591,"国企,五险一金,最美食堂",3448769,"['大数据', '用户研究']",数据分析/数据挖掘,8k-16k,1-3年
北京,杏树林信息技术（北京）有限公司,"['A类人才', '股票期权', '带薪年假', '年度旅游']",150-500人,本科,C轮,运营,"移动互联网,医疗健康",全职,39.893135,116.447045,"团队氛围好,学习空间大,六险一金",2530164,"['医疗健康', 'MySQL', 'python']",数据分析师,15k-20k,3-5年
上海,行吟信息科技（上海）有限公司,"['年度旅游', '节日礼物', '专项奖金', '带薪年假']",500-2000人,本科,C轮,运营,"生活服务,电子商务",全职,31.21771986,121.47013999,福利待遇好,2050861,['大数据'],数据分析师,15k-30k,1-3年
深圳,中腾信金融信息服务（上海）有限公司,"['节日礼物', '年底多薪', '绩效奖金', '岗位晋升']",2000人以上,本科,不需要融资,开发/测试/运维类,金融,全职,22.541164,113.953272,"公司背景好,稳定,福利好,环境好",3550322,"['金融', '初级', '数据挖掘', '建模', '统计']",数据分析师,9k-16k,1-3年
深圳,沃尔玛（中国）投资有限公司,[],2000人以上,本科,上市公司,市场与销售,"电子商务,其他",全职,22.544741,114.012206,"企业文化,职业发展,薪酬福利,工作环境",2325211,['BI'],商业数据分析-经理,20k-30k,5-10年
上海,华院数据技术（上海）有限公司,"['带薪年假', '绩效奖金', '定期体检', '通讯津贴']",500-2000人,硕士,C轮,综合职能类,"企业服务,数据服务",全职,116.331398,39.897445,"发展空间大,六险一金,10天年假,各类补助",2708205,"['讲师', '数据挖掘', 'SPSS']",大数据分析师,15k-25k,3-5年
杭州,杭州多准数据技术有限公司,"['扁平管理', '零食天天有', '团队颜值高', '股票期权']",50-150人,本科,A轮,产品/需求/项目类,"数据服务,广告营销",全职,29.993662,119.993591,"团队有活力,零食天天有,桌球/游戏,美女如云",3874577,['品牌营销'],商业数据分析师,8k-15k,1-3年
北京,北京作业盒子科技有限公司,"['技能培训', '年底双薪', '节日礼物', '年度旅游']",500-2000人,本科,C轮,开发/测试/运维类,"移动互联网,教育",全职,39.996202,116.480284,"扁平化管理,期权,公司氛围好,互联网教育",3638815,"['专家', '大数据', '数据挖掘']",数据分析师,15k-25k,1-3年
杭州,杭州恩牛网络技术有限公司,"['节日礼物', '专项奖金', '带薪年假', '扁平管理']",500-2000人,本科,C轮,开发/测试/运维类,"金融,数据服务",全职,30.290585,120.074215,"期权,六险一金,全员mac,弹性工作",4096819,[],数据科学家/资深算法（产品数据分析方向）,25k-35k,5-10年
广州,优视科技有限公司,"['年度分红', '年度奖金', '股票期权', '每年2次加薪']",2000人以上,本科,D轮及以上,开发/测试/运维类,移动互联网,全职,23.185159,113.411299,平台高+发展前景+薪酬福利保障,4121772,"['中级', '大数据', '数据挖掘', 'SPSS']",数据分析师,6k-10k,1-3年
南京,南京领添信息技术有限公司,"['节日礼物', '股票期权', '带薪年假', '绩效奖金']",500-2000人,本科,C轮,产品/需求/项目类,"移动互联网,电子商务",全职,31.974161,118.755224,"五险一金,节日福利,年假,年终奖",3961866,"['电商', '物流', 'SPSS', '数据管理']",物流数据分析专员,4k-5k,不限
广州,三七互娱（上海）科技有限公司,"['绩效奖金', '五险一金', '通讯津贴', '交通补助']",2000人以上,本科,上市公司,产品/需求/项目类,游戏,全职,22.994261,112.993461,"平台好,福利好",2827922,"['广告营销', 'SPSS']",数据分析专员,8k-10k,1-3年
北京,小船出海教育科技（北京）有限公司,"['股票期权', '免费三餐', '打车报销', '14薪']",500-2000人,本科,C轮,市场/商务/销售类,"移动互联网,教育",全职,40.044203,116.303062,七险一金 免费三餐 住房补贴,3820421,"['SPSS', 'sas']",数据分析师,15k-25k,3-5年
北京,北京十一贝科技有限公司,"['年底双薪', '交通补助', '绩效奖金', '定期体检']",50-150人,本科,不需要融资,开发/测试/运维类,移动互联网,全职,40.036379,116.37255,"交通补助,包三餐",4112874,"['金融', '大数据', '数据挖掘']",数据分析师,15k-25k,1-3年
北京,梦想城堡（天津）电子商务有限公司,"['美女多', '帅哥多', '免费班车', '扁平管理']",500-2000人,本科,C轮,运营/编辑/客服,电子商务,全职,39.988138,116.500284,"扁平化管理,专业团队",4018574,"['SPSS', '数据管理']",数据分析专员,6k-10k,1-3年
北京,杏树林信息技术（北京）有限公司,"['A类人才', '股票期权', '带薪年假', '年度旅游']",150-500人,大专,C轮,开发/测试/运维类,"移动互联网,医疗健康",全职,39.893135,116.447045,"氛围好,追求卓越,免费三餐,免费下午茶",3690409,"['医疗健康', '运营', '大数据']",数据分析师,10k-20k,1-3年
北京,行吟信息科技（上海）有限公司,"['年度旅游', '节日礼物', '专项奖金', '带薪年假']",500-2000人,本科,C轮,开发/测试/运维类,"生活服务,电子商务",全职,40.003335,116.488635,"数据分析,SQL,R",4025250,"['电商', '大数据', '数据挖掘']",数据分析师,10k-20k,3-5年
杭州,杭州恩牛网络技术有限公司,"['节日礼物', '专项奖金', '带薪年假', '扁平管理']",500-2000人,本科,C轮,开发/测试/运维类,"金融,数据服务",全职,,,"全员MAC,弹性工作,六险一金,餐饮补贴",4108356,"['数据挖掘', 'SPSS']",数据分析师,15K-25K,3-5年
南京,南京领添信息技术有限公司,"['节日礼物', '股票期权', '带薪年假', '绩效奖金']",500-2000人,本科,C轮,开发/测试/运维类,"移动互联网,电子商务",全职,31.974161,118.755224,"GA,分析,方案,五险一金",2788007,['电商'],数据分析,4k-6k,1-3年
广州,三七互娱（上海）科技有限公司,"['绩效奖金', '五险一金', '通讯津贴', '交通补助']",2000人以上,本科,上市公司,产品/需求/项目类,游戏,全职,22.994261,112.993461,"上市公司,福利待遇好,晋升制度全",3127749,"['广告营销', '投放', 'SEM']",数据分析专员,6k-10k,1-3年
北京,北京每日优鲜电子商务有限公司,"['节日礼物', '岗位晋升', '管理规范', '五险一金']",500-2000人,不限,C轮,开发/测试/运维类,"移动互联网,电子商务",全职,39.986108,116.479363,领导好，扁平管理，技能培训，晋升空间大,3784271,"['高级', '中级']",数据分析工程师／数据挖掘工程师,15k-30k,1-3年
深圳,深圳市赢众通金融信息服务有限责任公司,"['五险一金', '两餐补助', '超低息员工贷', '年底奖金']",500-2000人,本科,B轮,产品/需求/项目类,金融,全职,22.519682,113.94225,五险一金、带薪年假、绩效奖金,4121710,"['运营', 'SPSS']",数据分析,10k-20k,1-3年
厦门,北京三快在线科技有限公司,"['技能培训', '绩效奖金', '岗位晋升', '领导好']",2000人以上,本科,D轮及以上,开发/测试/运维类,"移动互联网,O2O",全职,24.474308,118.190399,"共享经济,气氛活跃",3853137,"['支付', '数据挖掘']",高级数据分析师,25k-35k,3-5年
北京,北京汉迪移动互联网科技股份有限公司,"['""""']",150-500人,本科,不需要融资,产品/需求/项目类,"移动互联网,社交网络",全职,39.992408,116.339299,"硅谷式办公,广阔平台,弹性工作制,时令水果",4118449,"['广告营销', '专员', '业务运营', 'SPSS']",数据分析,8k-15k,不限
上海,上海恺英网络科技有限公司,"['游戏公司', '页游', '手游', '互联网']",500-2000人,本科,上市公司,开发/测试/运维类,"移动互联网,游戏",全职,31.09646955,121.50669968,五险一金、节日福利、绩效奖金、年终奖金,4060075,[],数据分析师,12k-20k,1-3年
苏州,同程网络科技股份有限公司,"['绩效奖金', '股票期权', '年底双薪', '五险一金']",2000人以上,本科,D轮及以上,产品/需求/项目类,"旅游,电子商务",全职,31.251433,120.730799,五险一金 年终奖 节日福利 带薪假期,3759386,[],数据分析,6k-12k,1-3年
深圳,腾讯科技(深圳)有限公司,"['免费班车', '成长空间', '年度旅游', '岗位晋升']",2000人以上,本科,上市公司,开发/测试/运维类,"移动互联网 ,游戏",全职,22.541047,113.932749,公司平台大，福利待遇好,3383251,"['高级', '数据挖掘']",数据分析开发工程师（深圳）,15k-30k,3-5年
北京,上海一起作业信息科技有限公司,"['节日礼物', '岗位晋升', '扁平管理', '领导好']",500-2000人,本科,D轮及以上,运营/编辑/客服,"移动互联网,教育",全职,40.000825,116.486624,"与大牛共事,竞争薪酬,竞争福利,六险一金",3386035,"['高级', '专员', '运营', 'SQL']",平台业务--资深数据分析,10k-20k,1-3年
上海,北京字节跳动科技有限公司,"['扁平管理', '弹性工作', '大厨定制三餐', '就近租房补贴']",500-2000人,硕士,C轮,产品/需求/项目类,"移动互联网,数据服务",全职,31.157779,31.157779,弹性工作，晋升空间，团队氛围好,4102375,[],高级数据分析师,15k-30k,3-5年
广州,广州舜飞信息科技有限公司,"['迟到不要钱', '吃肉不要钱', 'Xbox免费', '零食不要钱']",150-500人,本科,未融资,运营/编辑/客服,移动互联网,全职,23.12631968,113.38962963,数据控的黄金职业~~,4000567,"['广告营销', '广告投放', 'SEM']",广告优化/数据分析师,8k-15k,1年以下
广州,三七互娱（上海）科技有限公司,"['绩效奖金', '五险一金', '通讯津贴', '交通补助']",2000人以上,本科,上市公司,产品/需求/项目类,游戏,全职,22.994261,112.993461,"上市公司,平台好",3109374,"['大数据', '数据挖掘']",数据分析师（海外运营）,10k-15k,不限
北京,腾讯科技(深圳)有限公司,"['免费班车', '成长空间', '年度旅游', '岗位晋升']",2000人以上,本科,上市公司,开发/测试/运维类,"移动互联网 ,游戏",全职,39.977178,116.336997,公司平台大，发展前景好,2976180,"['大数据', 'C++', 'hadoop']",数据分析工程师（北京）,16k-32k,3-5年
北京,上海一起作业信息科技有限公司,"['节日礼物', '岗位晋升', '扁平管理', '领导好']",500-2000人,本科,D轮及以上,产品/需求/项目类,"移动互联网,教育",全职,40.000825,116.486624,"完善薪酬,完善福利,办公环境佳,与大牛共事",2940908,"['高级', '业务运营', '大数据', '数据挖掘']",数据分析,10k-20k,1-3年
北京,北京字节跳动科技有限公司,"['扁平管理', '弹性工作', '大厨定制三餐', '就近租房补贴']",500-2000人,硕士,C轮,产品/需求/项目类,"移动互联网,数据服务",全职,39.971268,116.332602,弹性工作，免费三餐，租房补贴,4084688,[],高级数据分析师,15k-30k,3-5年
广州,中邮消费金融有限公司,"['专项奖金', '年终分红', '带薪年假', '定期体检']",500-2000人,本科,未融资,开发/测试/运维类,"移动互联网,金融",全职,23.148924,113.327956,"人工智能,大数据,成长空间大,福利好",4077359,"['资深', '中级', '数据挖掘', '建模']",高级BI数据分析开发师,16k-29k,5-10年
北京,北京三快在线科技有限公司,"['技能培训', '绩效奖金', '岗位晋升', '领导好']",2000人以上,本科,D轮及以上,运营/编辑/客服,"移动互联网,O2O",全职,40.007208,116.486654,"免费班车,核心部门,年底双薪",4121651,['电商'],业务运营（数据分析）,10k-20k,3-5年
杭州,北京网思科平科技有限公司,"['带薪年假', '岗位晋升', '五险一金', '绩效奖金']",50-150人,本科,B轮,开发/测试/运维类,"信息安全,数据服务",全职,30.276101,120.12236,"专业培训,公司餐补,关系简单",3637853,"['中级', '算法', '数据挖掘', '机器学习']",数据分析师,14k-21k,1-3年
成都,北京大米未来科技有限公司,"['绩效奖金', '股票期权', '五险一金', '带薪年假']",2000人以上,本科,D轮及以上,运营/编辑/客服,教育,全职,0.0,0.0,"六险一金,餐补房补,平台大,发展空间大",4094571,"['总监', '运营', '大数据', '数据挖掘']",数据分析高级经理,8k-16k,5-10年
厦门,富银金融信息服务（北京）有限公司,"['技能培训', '带薪年假', '节日礼金', '周末双休']",50-150人,本科,不需要融资,产品/需求/项目类,金融,全职,24.488033,118.197111,"项目奖金,员工生日会,部门活动,节日福利",3546133,"['金融', '数据挖掘', 'SPSS', 'sas']",数据分析专员,5k-8k,1-3年
上海,北京国双科技有限公司,"['年度旅游', '节日礼物', '年底双薪', '带薪年假']",500-2000人,本科,上市公司,产品/需求/项目类,"数据服务,企业服务",全职,31.225579,121.449682,上市公司 前景佳 氛围好 牛人多,4018476,"['金融', '媒体', '大数据', '数据挖掘', '策略']",高级数据分析师,10k-20k,5-10年
杭州,杭州微拍堂文化创意有限公司,"['岗位晋升', '年度旅游', '年底双薪', '午餐补助']",150-500人,本科,A轮,开发/测试/运维类,移动互联网,全职,30.2784,120.12658,"14薪,六险一金,双休,弹性工作制",3928652,"['搜索', '算法', '数据挖掘', '推荐', '数据管理']",数据分析工程师,25k-35k,3-5年
北京,北京首都在线科技股份有限公司,"['绩效奖金', '通讯津贴', '定期体检', '带薪年假']",150-500人,本科,上市公司,开发/测试/运维类,移动互联网,全职,39.99426,115.99339,平台好,3919528,"['数据挖掘', 'SPSS']",数据分析师,20k-25k,3-5年
广州,广州市贝聊信息科技有限公司,"['五险一金', '股票期权', '绩效奖金', '弹性工作']",150-500人,本科,B轮,产品/需求/项目类,"移动互联网,教育",全职,23.12153514,113.37336103,技术大牛带你飞，周末双休，部门氛围活跃,4089123,"['大数据', '数据挖掘', 'SQL', 'SPSS', '用户研究']",数据分析师,10k-15k,1-3年
广州,广州小朴熊电子商务有限公司,[],50-150人,大专,未融资,产品/需求/项目类,电子商务,全职,22.981257,113.367394,"数据分析,库存盘点,服装",4039811,"['电商', '业务运营', '运营']",数据分析经理,6k-10k,3-5年
上海,上海方付通商务服务有限公司,"['技能培训', '节日礼物', '岗位晋升', '五险一金']",500-2000人,本科,不需要融资,设计,"移动互联网,金融",全职,31.22457986,121.54909,薪资优待 福利完善,2337314,[],数据分析师,15k-30k,3-5年
北京,腾讯科技(深圳)有限公司,"['免费班车', '成长空间', '年度旅游', '岗位晋升']",2000人以上,本科,上市公司,开发/测试/运维类,"移动互联网 ,游戏",全职,39.977178,116.336997,腾讯大平台,3512007,"['大数据', '数据挖掘', 'hadoop']",数据分析开发工程师,15k-30k,3-5年
北京,上海一起作业信息科技有限公司,"['节日礼物', '岗位晋升', '扁平管理', '领导好']",500-2000人,硕士,D轮及以上,产品/需求/项目类,"移动互联网,教育",全职,40.000825,116.486624,"团队好,福利多",3918032,"['商业', '数据挖掘', 'SPSS']",BI数据分析师,10k-20k,1-3年
广州,中邮消费金融有限公司,"['专项奖金', '年终分红', '带薪年假', '定期体检']",500-2000人,本科,未融资,开发/测试/运维类,"移动互联网,金融",全职,23.148924,113.327956,"互联网金融,敏捷开发,项目奖,挑战性工作",4077299,"['信息安全', '资深', '大数据', '数据挖掘']",高级BI数据分析开发,16k-29k,5-10年
杭州,北京网思科平科技有限公司,"['带薪年假', '岗位晋升', '五险一金', '绩效奖金']",50-150人,本科,B轮,开发/测试/运维类,"信息安全,数据服务",全职,0.0,0.0,"专业培训,公司餐补,关系简单",3397381,"['大数据', '数据挖掘']",中级数据分析师,12k-18k,1-3年
北京,富银金融信息服务（北京）有限公司,"['技能培训', '带薪年假', '节日礼金', '周末双休']",50-150人,本科,不需要融资,开发/测试/运维类,金融,全职,39.921179,116.463316,"五险一金,15薪,福利齐全,晋升空间",3694134,"['数据挖掘', 'sas']",数据分析师,13k-25k,3-5年
上海,上海方付通商务服务有限公司,"['技能培训', '节日礼物', '岗位晋升', '五险一金']",500-2000人,本科,不需要融资,产品,"移动互联网,金融",全职,30.994275,121.99341,"六险一金,带薪年假,定期体检,节日福利",2307566,[],高级数据分析专员,20k-40k,3-5年
成都,广东鸿特普惠信息服务有限公司,"['年底双薪', '带薪年假', '美女多', '五险一金']",2000人以上,本科,D轮及以上,开发/测试/运维类,金融,全职,30.631306,104.067586,"双休,五险一金,年终奖,旅游",3871783,"['银行', '数据挖掘', '可视化', 'SPSS', 'sas']",副总裁助理（数据分析经理）,10k-20k,3-5年
上海,上海云兜网络科技有限公司,"['股票期权', '绩效奖金', '岗位晋升', '年度旅游']",50-150人,本科,A轮,产品/需求/项目类,"电子商务,教育",全职,31.242574,121.437768,"五险一金,带薪年假,做五休二,弹性工作",3386312,"['金融', '专员', '大数据', 'SPSS']",BI数据分析,8k-16k,1-3年
上海,拉扎斯网络科技（上海）有限公司,"['节日礼物', '绩效奖金', '年度旅游', '岗位晋升']",2000人以上,本科,D轮及以上,开发/测试/运维类,移动互联网,全职,31.23297317,121.38145144,五险一金 年终奖金 不断发展 弹性工作,3771264,"['数据挖掘', 'SPSS', 'sas']",高级/资深数据分析师,9k-18k,1-3年
杭州,杭州嘉云数据科技有限公司,"['海量大数据', '世界级产品', 'AI', '智能供应链']",150-500人,本科,C轮,产品/需求/项目类,"电子商务,移动互联网",全职,30.277356,120.124444,海量数据库,4078048,"['商业', '大数据', '数据挖掘', '统计']",数据分析师 / 数据科学家,15k-25k,3-5年
成都,成都聚梦科技有限公司,"['年底双薪', '带薪年假', '节日礼物', '五险一金']",50-150人,大专,不需要融资,产品/需求/项目类,游戏,全职,30.586649,104.055698,"五险一金,年底双薪,员工活动,节假日福利",3912352,"['专员', '运营', '大数据', '数据管理']",数据分析,5k-10k,1-3年
杭州,杭州群核信息技术有限公司,"['两次加薪', '弹性工作', '期权丰厚', '两次晋升']",500-2000人,本科,C轮,开发/测试/运维类,移动互联网,全职,30.293154,120.108647,期权激励、年度旅游、弹性工作、氛围欢乐,3990582,"['大数据', '数据挖掘']",数据分析专家,22k-35k,3-5年
北京,一九零五（北京）网络科技有限公司,"['年底双薪', '节日礼物', '管理规范', '通讯津贴']",150-500人,本科,未融资,产品/需求/项目类,"社交网络,文化娱乐",全职,39.976549,116.354098,五险一金 地铁周边 机会多,4032246,"['视频', '大数据', '数据挖掘']",数据分析师,14k-22k,3-5年
上海,上海晓鹿信息科技有限责任公司,"['带薪年假', '年底双薪', '绩效奖金', '专项奖金']",少于15人,本科,天使轮,开发/测试/运维类,"电子商务,金融",全职,31.266405,121.483455,"五险一金,竞争力薪酬,公司氛围好,快速成长",4051203,"['金融', '量化', '机器学习', '风控建模']",数据分析师,15k-25k,1-3年
北京,北京默契破冰科技有限公司,"['去他的考勤', '高手云集', '股票期权', '年底N薪']",50-150人,本科,B轮,产品/需求/项目类,"移动互联网,社交网络",全职,39.940498,116.436939,"六险一金,弹性不打卡,免费午餐,季度旅游",3569199,"['游戏', '社交', '文化娱乐', '大数据', '数据挖掘']",数据分析师,15k-30k,3-5年
北京,腾讯科技(深圳)有限公司,"['免费班车', '成长空间', '年度旅游', '岗位晋升']",2000人以上,硕士,上市公司,产品/需求/项目类,"移动互联网 ,游戏",全职,39.977178,116.336997,腾讯福利待遇 海量数据,3095147,"['媒体', '商业', '大数据', 'SPSS']",高级数据分析师,15k-30k,3-5年
北京,上海一起作业信息科技有限公司,"['节日礼物', '岗位晋升', '扁平管理', '领导好']",500-2000人,本科,D轮及以上,开发/测试/运维类,"移动互联网,教育",全职,39.99426,115.99339,"团队好,福利棒",3800142,"['数据挖掘', '大数据', 'SPSS']",资深数据分析师,10k-20k,3-5年
广州,中邮消费金融有限公司,"['专项奖金', '年终分红', '带薪年假', '定期体检']",500-2000人,本科,未融资,开发/测试/运维类,"移动互联网,金融",全职,23.148924,113.327956,"互联网金融,敏捷开发,项目奖,挑战性工作",4077294,"['资深', '高级', '数据管理']",中级BI数据分析开发,13k-23k,不限
成都,广东鸿特普惠信息服务有限公司,"['年底双薪', '带薪年假', '美女多', '五险一金']",2000人以上,本科,D轮及以上,金融类,金融,全职,30.568751,104.063392,"五险一金,周末双休,带薪年假,节假日福利",3603248,"['支付', '行业研究', '策略设计', '策略']",数据分析专员（风控）,4k-7k,1-3年
杭州,支付宝(杭州)信息技术有限公司,"['年底双薪', '带薪年假', '股票期权', '绩效奖金']",2000人以上,不限,B轮,开发/测试/运维类,"金融,移动互联网",全职,30.272627,120.125788,"股票期权,技术挑战,福利齐全,职位机遇",3730818,"['数据挖掘', 'ETL', '数据仓库', '建模', '数据治理']",蚂蚁金服-数据分析师/专家-网商银行,20k-40k,不限
北京,京东金融,"['供应链金融', '消费金融', '众筹业务', '支付业务']",2000人以上,本科,上市公司,开发/测试/运维类,金融,全职,39.787557,116.560575,大平台；晋升机会多；免费班车；内购福利。,3791765,"['支付', '数据挖掘', '用户研究']",数据分析与建模师,15k-30k,不限
北京,光合新知（北京）科技有限公司,"['产品领先行业', '关注学习本源', '明星跨界团队', '股票期权']",150-500人,大专,B轮,产品/需求/项目类,"移动互联网,教育",全职,39.991999,116.500139,"年假15天,免费早午餐,五险一金,免费班车",3451132,"['高级', '运营', '产品经理', '大数据']",BI 数据分析,10k-20k,1-3年
上海,上海倾听信息技术有限公司,"['明星直播', '男女1:1', '带薪年假', '扁平管理']",150-500人,不限,D轮及以上,开发/测试/运维类,移动互联网,全职,31.2181055,121.53128155,12天带薪年假，团队氛围佳，车补，午餐补,3565966,['数据挖掘'],数据分析工程师,18k-30k,1-3年
广州,广州酷旅旅行社有限公司,"['牛人云集', '技能培训', '豪华下午茶', '酒店预订']",500-2000人,本科,D轮及以上,产品/需求/项目类,"电子商务,生活服务",全职,23.12407,113.373772,成长空间大，公司氛围好，团队关系简单,3987530,"['业务运营', '项目管理', '风控', '审核']",数据分析专员（商业分析方向）,4k-8k,1-3年
天津,天津嘉业智德网络科技有限公司,"['带薪年假', '绩效奖金', '年度旅游', '岗位晋升']",500-2000人,本科,未融资,运营/编辑/客服,"数据服务,其他",全职,39.110442,117.180975,发展空间大,2707748,[],数据分析师,5k-10k,1-3年
北京,蓝港在线（北京）科技有限公司,"['年底双薪', '节日礼物', '技能培训', '绩效奖金']",500-2000人,本科,上市公司,产品/需求/项目类,游戏,全职,40.01206006,116.47493,公司提供免费住宿和三餐，实习生有导师带领,4097854,"['游戏', '广告营销', '数据挖掘']",数据分析师,2k-4k,不限
深圳,深圳盒子信息科技有限公司,"['技能培训', '俱乐部', '婚育礼金', '下午茶健身房']",500-2000人,本科,C轮,开发/测试/运维类,"移动互联网,金融",全职,22.523714,113.940802,"大牛聚集地,健身房,工作环境好",3655349,"['支付', '数据挖掘', 'SPSS']",数据分析师,15k-25k,5-10年
北京,北京永洪商智科技有限公司,"['期权股激励', '领导好', '五险一金', '巨大成长空间']",150-500人,本科,C轮,产品/需求/项目类,企业服务、数据服务,全职,39.914005,116.452067,"大数据,C轮,BI,年终奖",4008617,"['金融', '资深', '高级', '大数据', 'BI']",数据分析师,20k-25k,5-10年
上海,拉扎斯网络科技（上海）有限公司,"['节日礼物', '绩效奖金', '年度旅游', '岗位晋升']",2000人以上,本科,D轮及以上,产品/需求/项目类,移动互联网,全职,31.23297317,121.38145144,团队给力，领导nice,3472798,"['资深', '大数据']",数据分析师,20k-30k,1-3年
北京,北京因果树网络科技有限公司,"['技能培训', '节日礼物', '股票期权', '带薪年假']",50-150人,本科,B轮,开发/测试/运维类,金融,全职,39.984791,116.306683,"模型专家,数据大师",3891140,"['金融', '行业研究']",高级数据分析师,10k-20k,3-5年
成都,广东鸿特普惠信息服务有限公司,"['年底双薪', '带薪年假', '美女多', '五险一金']",2000人以上,大专,D轮及以上,产品/需求/项目类,金融,全职,30.568738,104.063117,"周末双休,五险一金,节日福利,带薪年假",3339000,"['金融', '统计']",数据分析专员(成都）,3k-5k,1-3年
杭州,支付宝(杭州)信息技术有限公司,"['年底双薪', '带薪年假', '股票期权', '绩效奖金']",2000人以上,本科,B轮,开发/测试/运维类,"金融,移动互联网",全职,30.272627,120.125788,"股票期权,技术挑战,技能培训,职位机遇",3698324,"['资深', '数据挖掘', '机器学习', '人工智能']",蚂蚁金服-数据分析专家/高级专家,25k-50k,不限
北京,京东金融,"['供应链金融', '消费金融', '众筹业务', '支付业务']",2000人以上,硕士,上市公司,产品/需求/项目类,金融,全职,39.786653,116.562968,大平台,4071787,"['大数据', 'BI', '可视化', '业务运营', 'SPSS']",资深数据分析专家,30k-45k,5-10年
北京,光合新知（北京）科技有限公司,"['产品领先行业', '关注学习本源', '明星跨界团队', '股票期权']",150-500人,大专,B轮,开发/测试/运维类,"移动互联网,教育",全职,39.991999,116.500139,"免费早午餐,年假15天,指数级增长,数据量大",3983242,"['高级', '中级', '运营', '产品经理', '大数据']",数据分析,10k-20k,1-3年
上海,上海倾听信息技术有限公司,"['明星直播', '男女1:1', '带薪年假', '扁平管理']",150-500人,本科,D轮及以上,产品/需求/项目类,移动互联网,全职,31.2181055,121.53128155,弹性工作，年轻化团队，行业领先平台,3986226,"['金融', '高级', '业务运营', '大数据', '数据挖掘']",数据分析师,15k-25k,3-5年
北京,蓝港在线（北京）科技有限公司,"['年底双薪', '节日礼物', '技能培训', '绩效奖金']",500-2000人,本科,上市公司,产品/需求/项目类,游戏,全职,40.01206006,116.47493,七险一金 免费三餐 免费班车 专业培训,4061386,"['移动互联网', '游戏', '运营', '大数据']",数据分析总监,25k-35k,5-10年
上海,蜜柚网络科技（上海）有限公司,"['技能培训', '节日礼物', '股票期权', '带薪年假']",150-500人,本科,不需要融资,运营/编辑/客服,"社交网络,文化娱乐",全职,30.994275,121.99341,"氛围好,福利多,欢乐多,逼格高",3424873,"['高级', '大数据', '数据挖掘']",数据分析师-运营方向,8k-10k,不限
北京,中诚信征信有限公司,[],150-500人,硕士,不需要融资,开发/测试/运维类,"移动互联网,金融",全职,39.921853,116.420489,"五险一金,免费午餐,下午茶,独立四合院",3403083,"['金融', '征信', '大数据']",数据分析师（风控建模方向）,15k-30k,1-3年
上海,上海画龙信息科技有限公司,"['年底四薪', '股票期权', '带薪年假', '五险一金']",15-50人,本科,A轮,产品/需求/项目类,"数据服务,广告营销",全职,31.187368,121.430795,一流的团队实力，完善的员工成长计划+平台,4046891,"['商业', '大数据', 'SQL', 'R', 'python']",高级数据分析师,10k-20k,3-5年
北京,飞驰镁物（北京）信息服务有限公司,"['智能汽车', '车联网', '股票期权', '黄金团队组合']",150-500人,本科,B轮,开发/测试/运维类,"移动互联网,数据服务",全职,39.89339007,116.51052,五险一金 弹性工作职责 13薪,3466215,"['大数据', '数据挖掘', 'SPSS', 'sas']",数据分析师,13k-20k,3-5年
上海,南京安贤信息科技有限公司,[],15-50人,本科,A轮,开发/测试/运维类,"移动互联网,信息安全",全职,31.24984,121.395555,"大平台,带人",3912834,"['大数据', '数据挖掘', 'SPSS']",高级数据分析师,22k-36k,3-5年
北京,北京深极智能科技有限公司,[],少于15人,硕士,天使轮,产品/需求/项目类,其他,全职,39.975023,116.349408,"上升空间,团队融洽,领导nic",2707825,"['游戏', '数据挖掘', 'SPSS']",数据分析师,10k-20k,1-3年
广州,广州棒谷科技股份有限公司,"['项目奖金', '绩效奖金', '年终奖', '五险一金']",2000人以上,本科,不需要融资,产品/需求/项目类,电子商务,全职,23.175202,113.271506,"奖金丰厚,绩效奖金,发展空间大,年轻团队",3915208,"['大数据', 'BI', '数据管理']",数据分析师,6k-8k,1-3年
杭州,杭州点望科技有限公司,"['技能培训', '节日礼物', '股票期权', '扁平管理']",150-500人,本科,B轮,开发/测试/运维类,"移动互联网,社交网络",全职,30.266811,120.097412,"B轮机会,年底多薪,免费体检,扁平管理",3822281,[],数据分析,8k-15k,3-5年
珠海,珠海市小源科技有限公司,"['带薪年假', '岗位晋升', '五险一金', '股票期权']",50-150人,本科,B轮,产品/需求/项目类,移动互联网,全职,22.238006,113.542057,"双休,上班不打卡,不限量零食,年度旅游",4118559,"['电商', '物流', '大数据', '数据开发', '数据管理']",数据分析师,4k-6k,不限
上海,广东鸿特普惠信息服务有限公司,"['年底双薪', '带薪年假', '美女多', '五险一金']",2000人以上,本科,D轮及以上,开发/测试/运维类,金融,全职,31.211843,121.596821,"双休,五险一金,年终奖,旅游",3580369,"['金融', '数据挖掘', '大数据', 'SPSS', 'sas']",数据分析岗,6k-12k,1-3年
北京,京东金融,"['供应链金融', '消费金融', '众筹业务', '支付业务']",2000人以上,本科,上市公司,开发/测试/运维类,金融,全职,39.82198934,116.52117756,餐补+年终奖+好的晋升空间,3061464,"['支付', '大数据', '数据挖掘']",高级数据分析师,20k-30k,5-10年
上海,上海倾听信息技术有限公司,"['明星直播', '男女1:1', '带薪年假', '扁平管理']",150-500人,本科,D轮及以上,运营/编辑/客服,移动互联网,全职,31.2181055,121.53128155,与行业大牛共事,3802451,"['运营', '编辑', '产品']",用户增长数据分析实习生,2k-3k,不限
北京,蓝港在线（北京）科技有限公司,"['年底双薪', '节日礼物', '技能培训', '绩效奖金']",500-2000人,本科,上市公司,产品/需求/项目类,游戏,全职,40.01206006,116.47493,游戏数据分析 游戏行业分析 SPSS,3891186,"['社交', '资深', '高级', '游戏开发', '数值']",游戏数据分析师,10k-20k,3-5年
上海,中诚信征信有限公司,[],150-500人,硕士,不需要融资,开发/测试/运维类,"移动互联网,金融",全职,0.0,0.0,"行业领导者,弹性工作制,周五7小时,扁平化管理",4070433,['Java'],数据分析师（风控建模方向-上海）,15k-30k,1-3年
上海,上海画龙信息科技有限公司,"['年底四薪', '股票期权', '带薪年假', '五险一金']",15-50人,硕士,A轮,开发/测试/运维类,"数据服务,广告营销",全职,31.187368,121.430795,来自硅谷的大数据团队，期权激励，平台大,4113089,"['大数据', 'SQL', 'R', 'python', '商业']",数据分析师,8k-16k,1-3年
北京,北京弘合柏基金融信息服务有限责任公司,"['岗位晋升', '股票期权', '绩效奖金', '定期体检']",500-2000人,硕士,C轮,产品/需求/项目类,金融,全职,39.979691,116.312978,"大牛多,平台大,团队友好,气氛活跃",4112766,"['理财', '大数据', '数据挖掘']",数据分析师（理财端）,15k-25k,1-3年
上海,上海钧正网络科技有限公司,"['绩效奖金', '年底双薪', '股票期权', '交通补助']",500-2000人,本科,D轮及以上,产品/需求/项目类,"移动互联网,硬件",全职,31.12276,121.363974,"年底双薪,D+轮融资",4023293,"['高级', '大数据', '商业', '业务运营']",资深数据分析师,15k-30k,3-5年
北京,北京三快在线科技有限公司,"['技能培训', '绩效奖金', '岗位晋升', '领导好']",2000人以上,本科,D轮及以上,运营/编辑/客服,"移动互联网,O2O",全职,31.217836,121.417969,"独角兽企业,免费班车",4112821,"['硬件制造', '大数据', 'SPSS']",数据分析专员,10k-15k,1-3年
上海,上海拿米金融信息服务有限公司,"['年底双薪', '股票期权', '带薪年假', '通讯津贴']",150-500人,本科,不需要融资,开发/测试/运维类,"移动互联网,金融",全职,31.171432,121.410559,"五险一金,环境好,福利好",3958296,"['金融', '建模', '数据挖掘']",大数据分析工程师—数据分析师,20k-35k,3-5年
上海,上海触乐信息科技有限公司,"['管理扁平', '发展空间大', '行业独角兽', '带薪年假病假']",150-500人,本科,D轮及以上,运营/编辑/客服,"移动互联网,数据服务",全职,31.172406,121.393969,"11亿用户,行业独角兽,发展空间大,福利待遇佳",4098849,"['电商', '广告营销', '海外', '产品']",商业化运营经理（数据分析）,15k-30k,1-3年
北京,北京真格天成投资管理有限公司,[],50-150人,本科,不需要融资,开发/测试/运维类,金融,全职,39.831812,116.3039,"人工智能,大数据,五险一金,大平台",4050213,"['金融', '社交', '借贷', '建模']",高级数据分析师-真格基金投资企业（罗马车贷）,25k-35k,3-5年
上海,鼎必程（上海）信息技术有限公司,"['年底双薪', '带薪年假', '定期体检', '交通补助']",50-150人,本科,B轮,产品/需求/项目类,金融,全职,31.183898,121.475215,"发展空间大,弹性工作,免费班车,无限零食",3928874,"['资深', '大数据', '数据挖掘']",数据分析师,10k-20k,1-3年
北京,北京趣拿软件科技有限公司,"['技能培训', '节日礼物', '带薪年假', '无息住房贷款']",2000人以上,本科,上市公司,产品/需求/项目类,移动互联网,全职,39.979387,116.311857,弹性工作时间 带薪假期,3633438,"['旅游', '数据挖掘', '建模', 'R']",高级产品经理（数据分析方向）-攻略事业部,15k-30k,3-5年
上海,百联全渠道电子商务有限公司,"['节日礼物', '岗位晋升', '五险一金', '午餐补助']",500-2000人,本科,不需要融资,市场/商务/销售类,"电子商务,O2O",全职,30.994061,120.993464,"国企,氛围",3598669,"['金融', '数据挖掘', 'SPSS', 'sas']",业务数据分析,15k-30k,3-5年
北京,京东金融,"['供应链金融', '消费金融', '众筹业务', '支付业务']",2000人以上,本科,上市公司,技术,金融,全职,39.82198934,116.52117756,餐补+年终奖+良好的晋升空间,635332,"['支付', '数据挖掘']",数据分析,15k-30k,3-5年
上海,上海画龙信息科技有限公司,"['年底四薪', '股票期权', '带薪年假', '五险一金']",15-50人,本科,A轮,产品/需求/项目类,"数据服务,广告营销",全职,31.187368,121.430795,"大数据公司,硅谷团队,股票期权,带薪假期",2547009,"['大数据', 'R', 'python']",高级商业数据分析师,15k-30k,5-10年
上海,上海钧正网络科技有限公司,"['绩效奖金', '年底双薪', '股票期权', '交通补助']",500-2000人,大专,D轮及以上,产品/需求/项目类,"移动互联网,硬件",全职,31.122746,121.363896,"发展空间大,福利多,弹性时间",3875556,"['金融', 'SPSS', 'sas']",数据分析（上海）,5k-9k,1年以下
北京,北京三快在线科技有限公司,"['技能培训', '绩效奖金', '岗位晋升', '领导好']",2000人以上,本科,D轮及以上,运营/编辑/客服,"移动互联网,O2O",全职,31.217836,121.417969,互联网独角,3965217,"['硬件制造', '大数据', 'SPSS']",数据分析专员,10k-15k,1-3年
上海,上海拿米金融信息服务有限公司,"['年底双薪', '股票期权', '带薪年假', '通讯津贴']",150-500人,大专,不需要融资,产品/需求/项目类,"移动互联网,金融",全职,31.171432,121.410559,13薪,3360450,"['金融', '旅游']",数据分析师,10k-15k,1-3年
上海,上海先烁信息科技有限公司,"['节日礼物', '技能培训', '带薪年假', '岗位晋升']",150-500人,本科,B轮,产品/需求/项目类,移动互联网,全职,31.21709,121.53219,"发展前景,扁平管理,福利优厚,晋升机会",3992548,"['物流', '大数据', 'BI', '专员', 'WMS']",数据分析师,10k-17k,1-3年
北京,央广新媒体文化传媒（北京）有限公司,"['技能培训', '年终奖金', '定期体检', '带薪年假']",150-500人,本科,不需要融资,开发/测试/运维类,"移动互联网,文化娱乐",全职,39.99426,115.99339,"福利健全,团队年轻,年终奖金",3419357,"['初级', 'seo', '搜索']",数据分析,8k-12k,1-3年
北京,北京启萌教育科技有限公司,"['绩效奖金', '弹性工作', '岗位晋升', '股票期权']",150-500人,本科,A轮,开发/测试/运维类,"移动互联网,教育",全职,39.989577,116.482647,氛围好,3988561,"['初级', '大数据', 'SPSS', '数据管理']",数据分析,6k-10k,1-3年
广州,广东万城万充电动车运营股份有限公司,"['周末双休', '员工餐厅', '五险一金', '不打卡']",150-500人,大专,不需要融资,产品/需求/项目类,其他,全职,23.078157,113.262569,"双休,五险一金,员工饭堂,年终奖",4058875,"['市场', '策划', '会务']",数据分析师,6k-10k,1-3年
上海,通联数据股份公司,"['五险一金', '通讯津贴', '带薪年假', '节日礼物']",150-500人,本科,不需要融资,金融,金融,全职,31.2375703,121.49772009,薪资福利好 大数据,2274995,['行业研究'],行业数据分析师,10k-20k,1-3年
上海,两鲜商贸（上海）有限公司,"['技能培训', '节日礼物', '带薪年假', '岗位晋升']",150-500人,本科,A轮,开发/测试/运维类,电子商务,全职,31.169947,121.566916,"氛围轻松,大牛带教",3111840,"['数据挖掘', 'SPSS']",助理数据分析师,5k-7k,不限
深圳,深圳世联行地产顾问股份有限公司,"['五险一金', '通讯津贴', '带薪年假', '年底双薪']",2000人以上,本科,上市公司,运营/编辑/客服,企业服务,全职,22.544938,114.127163,公司平台大，发展前景好,4034151,"['金融', 'SPSS', 'sas']",数据分析岗,5k-8k,不限
深圳,深圳市拓翼无境供应链服务有限公司,"['年底双薪', '专项奖金', '年终分红', '绩效奖金']",150-500人,大专,未融资,产品/需求/项目类,"电子商务,企业服务",全职,22.585743,113.950122,"免费零食,带薪年假,定期体检",4089153,"['信息安全', '大数据', '数据挖掘']",数据分析专员(亚马逊报表方向),5k-8k,不限
上海,晋松（上海）网络信息技术有限公司,"['相互成就', '敢想敢做', '消费场景', '趋势改变习惯']",50-150人,本科,A轮,开发/测试/运维类,"移动互联网,金融",全职,31.307861,121.513693,"消费金融,年终多薪,行业前景大",4087301,"['hadoop', '数据挖掘', '建模', 'SPSS']",资深数据分析师,15k-30k,3-5年
长沙,中移在线服务有限公司,[],2000人以上,本科,不需要融资,开发/测试/运维类,移动互联网,全职,116.331398,39.897445,"大数据平台,千万级用户,技术驱动,福利待",4100091,"['Java', 'PHP', 'C/C++']",数据分析(001838),6k-8k,1-3年
北京,京东金融,"['供应链金融', '消费金融', '众筹业务', '支付业务']",2000人以上,本科,上市公司,运营/编辑/客服,金融,全职,39.78603815,116.56438326,福利待遇佳，发展前景广阔,3048752,"['运营', '数据挖掘', 'SPSS', 'sas']",数据分析师,8k-15k,1-3年
上海,上海钧正网络科技有限公司,"['绩效奖金', '年底双薪', '股票期权', '交通补助']",500-2000人,本科,D轮及以上,产品/需求/项目类,"移动互联网,硬件",全职,31.12276,121.363974,"年底双薪,D+轮融资",4004712,['业务运营'],资深数据分析经理,25k-35k,5-10年
上海,上海拿米金融信息服务有限公司,"['年底双薪', '股票期权', '带薪年假', '通讯津贴']",150-500人,本科,不需要融资,产品/需求/项目类,"移动互联网,金融",全职,31.171432,121.410559,环境好,4090130,"['金融', '建模']",数据分析-风控部,10k-20k,1-3年
北京,北京启萌教育科技有限公司,"['绩效奖金', '弹性工作', '岗位晋升', '股票期权']",150-500人,本科,A轮,产品/需求/项目类,"移动互联网,教育",全职,39.989577,116.482647,氛围好,3877233,"['资深', '大数据', '数据挖掘']",数据分析经理,20k-40k,3-5年
深圳,深圳世联行地产顾问股份有限公司,"['五险一金', '通讯津贴', '带薪年假', '年底双薪']",2000人以上,本科,上市公司,其他,企业服务,全职,22.544938,114.127163,上市公司大平台，工作氛围好，发展前景好,3767710,"['房产服务', '房地产', '策略']",地产数据分析专员,7k-14k,3-5年
上海,晋松（上海）网络信息技术有限公司,"['相互成就', '敢想敢做', '消费场景', '趋势改变习惯']",50-150人,本科,A轮,开发/测试/运维类,"移动互联网,金融",全职,31.307861,121.513693,"发展空间大,年终多薪,行业前沿",4120883,"['hadoop', '数据挖掘', '建模', 'SPSS']",资深数据分析师,15k-30k,3-5年
郑州,中移在线服务有限公司,[],2000人以上,本科,不需要融资,开发/测试/运维类,移动互联网,全职,116.331398,39.897445,"领导好,扁平化,福利多,空间大",3975218,"['教育', '数据挖掘', 'SPSS']",数据分析（互联网运营中心）,12k-24k,3-5年
北京,小立教育科技（北京）有限公司,"['股权期权', '晋升空间', '节日礼物', '免费健身房']",15-50人,本科,天使轮,产品/需求/项目类,教育,全职,0.0,0.0,"交通方便,免费健身,发展空间大,团队氛围好",4114705,"['大数据', '数据挖掘', 'SPSS', 'sas']",数据分析师,15k-25k,1-3年
上海,客锐市场信息咨询（上海）有限公司,[],15-50人,本科,不需要融资,产品/需求/项目类,数据服务,全职,31.218711,121.453086,"高大上环境,外资咨询,节日福利",4064065,"['专员', '运营', '咨询', '品牌']",数据分析师（数据挖掘）,6k-7k,不限
上海,上海中彦信息科技有限公司,"['五险一金', '股票期权', '专项奖金', '带薪年假']",500-2000人,本科,C轮,技术,电子商务,全职,35.61082316,121.44239517,吃饭停车回家 旅游股票医疗 返利为你准备好,2445676,['大数据'],资深数据分析师,15k-25k,3-5年
北京,北京爱奇艺科技有限公司,"['绩效奖金', '五险一金', '交通补助', '带薪年假']",2000人以上,本科,D轮及以上,开发/测试/运维类,"广告营销,文化娱乐",全职,39.983752,116.313228,成熟型平台 快速发展型团队,3183005,"['视频', '数据挖掘']",高级数据分析师,16k-25k,3-5年
重庆,重庆维普资讯有限公司,"['年底双薪', '绩效奖金', '定期体检', '带薪年假']",150-500人,本科,不需要融资,产品/需求/项目类,"移动互联网,电子商务",全职,29.609499,106.503253,云处理平台,3749507,"['大数据', 'Java']",高级数据分析工程师,10k-12k,3-5年
北京,奇虎360科技有限公司,[],2000人以上,本科,上市公司,产品/需求/项目类,"移动互联网,游戏",全职,39.98313206,116.49112801,核心业务，创新团队,4102716,"['资深', '高级', '专员', '业务运营', '大数据']",数据分析师,20k-30k,3-5年
上海,上海数禾信息科技有限公司,"['股票期权', '通讯津贴', '交通补助', '午餐补助']",150-500人,硕士,不需要融资,金融类,"移动互联网,金融",全职,31.205215,121.602387,"移动金融,未来金矿,精英团队,助力成长",3490032,"['金融', '风控', '证券']",风险数据分析岗,10k-20k,1-3年
北京,中体彩科技发展有限公司,"['五险一金', '通讯津贴', '带薪年假', '免费班车']",150-500人,本科,不需要融资,开发/测试/运维类,"移动互联网,电子商务",全职,39.873956,116.460229,公益行业，弹性工作，活动丰富，临近地铁,4029786,"['大数据', '数据挖掘']",数据分析产品经理,20k-30k,3-5年
北京,京东金融,"['供应链金融', '消费金融', '众筹业务', '支付业务']",2000人以上,本科,上市公司,开发/测试/运维类,金融,全职,39.78603815,116.56438326,带薪休假、晋升空间大,3205104,"['大数据', '数据挖掘']",数据分析师,10k-20k,3-5年
上海,上海钧正网络科技有限公司,"['绩效奖金', '年底双薪', '股票期权', '交通补助']",500-2000人,本科,D轮及以上,开发/测试/运维类,"移动互联网,硬件",全职,31.12276,121.363974,年底双薪,3640726,"['大数据', '统计', 'SPSS', 'sas']",数据分析师,15k-30k,3-5年
上海,上海拿米金融信息服务有限公司,"['年底双薪', '股票期权', '带薪年假', '通讯津贴']",150-500人,大专,不需要融资,产品/需求/项目类,"移动互联网,金融",全职,31.171432,121.410559,环境好,4090157,"['金融', '数据挖掘']",大数据分析工程师,15k-30k,3-5年
深圳,深圳世联行地产顾问股份有限公司,"['五险一金', '通讯津贴', '带薪年假', '年底双薪']",2000人以上,本科,上市公司,运营/编辑/客服,企业服务,全职,22.544938,114.127163,公司平台大，发展前景好,3748570,"['房产服务', '行业研究', '市场分析']",数据分析员,5k-7k,1-3年
上海,晋松（上海）网络信息技术有限公司,"['相互成就', '敢想敢做', '消费场景', '趋势改变习惯']",50-150人,本科,A轮,开发/测试/运维类,"移动互联网,金融",全职,31.307861,121.513693,发展空间大,4120890,"['高级', 'hadoop', '数据挖掘', '大数据']",数据分析,15k-30k,3-5年
郑州,中移在线服务有限公司,[],2000人以上,本科,不需要融资,产品/需求/项目类,移动互联网,全职,34.804757,113.539949,"五险一金,企业年金,带薪年假,话费餐补",4065530,"['教育', '数据挖掘', 'SPSS']",数据分析,10k-20k,1-3年
北京,北京爱奇艺科技有限公司,"['绩效奖金', '五险一金', '交通补助', '带薪年假']",2000人以上,本科,D轮及以上,开发/测试/运维类,"广告营销,文化娱乐",全职,39.983752,116.313228,成熟型平台 成长型团队,3188913,[],资深数据分析师,20k-35k,3-5年
上海,上海数禾信息科技有限公司,"['股票期权', '通讯津贴', '交通补助', '午餐补助']",150-500人,本科,不需要融资,市场/商务/销售类,"移动互联网,金融",全职,0.0,0.0,"移动金融,未来金矿,精英团队,助力成长",3433869,[],数据分析师,6k-12k,1-3年
北京,中体彩科技发展有限公司,"['五险一金', '通讯津贴', '带薪年假', '免费班车']",150-500人,本科,不需要融资,产品/需求/项目类,"移动互联网,电子商务",全职,39.87317978,116.46066979,公益行业，弹性工作，活动丰富，临近地铁,3833356,"['云计算', '大数据', '数据挖掘', 'SPSS']",数据分析,15k-22k,3-5年
上海,上海厚本金融信息服务有限公司,"['技能培训', '年底双薪', '股票期权', '带薪年假']",2000人以上,本科,A轮,产品/需求/项目类,金融,全职,31.226515,121.624653,福利好,4078977,"['金融', 'SPSS', '数据管理']",数据分析师--电销部,8k-15k,1-3年
上海,浙江康健绿线网络技术有限公司,"['技能培训', '年底双薪', '节日礼物', '绩效奖金']",500-2000人,本科,C轮,运营,"移动互联网,医疗健康",全职,31.16370031,121.40405168,周末双休 带薪年假 人才推荐奖 节日福利,1969409,[],数据分析师-移动端用户行为分析（埋点）,6k-10k,1-3年
深圳,深圳市大疆创新科技有限公司,"['朝阳行业', '丰厚薪资待遇', '年终发车', '扁平管理']",2000人以上,本科,未融资,产品/需求/项目类,"移动互联网,硬件",全职,22.53338,113.95106,高科技行业 无人机领航 福利优渥 年终诱人,4061374,"['智能硬件', '需求分析', '大数据']",产品运营专员（数据分析）,8k-16k,1-3年
北京,北京易车互联信息技术有限公司,"['技能培训', '节日礼物', '绩效奖金', '岗位晋升']",2000人以上,本科,上市公司,开发/测试/运维类,"移动互联网,电子商务",全职,39.93812,116.32732,"上市公司,汽车互联网,七险一金,各种车福利",4031308,"['数据挖掘', '大数据']",JTZNYY-高级数据分析师,11k-22k,3-5年
深圳,深圳市环球易购电子商务有限公司,"['节日礼物', '股票期权', '带薪年假', '绩效奖金']",2000人以上,本科,上市公司,开发/测试/运维类,电子商务,全职,22.511241,113.920558,大平台,3565979,"['总监', '调研']",运营数据分析专家,30k-35k,5-10年
北京,央视市场研究股份有限公司,"['年底双薪', '节日礼物', '技能培训', '绩效奖金']",500-2000人,本科,D轮及以上,开发/测试/运维类,广告营销,全职,39.964612,116.379479,"福利待遇优,团队合作好",3543703,"['教育', '数据挖掘', '用户研究']",用户数据分析师-OC-MIO,10k-12k,1-3年
北京,京东金融,"['供应链金融', '消费金融', '众筹业务', '支付业务']",2000人以上,硕士,上市公司,金融类,金融,全职,39.78603815,116.56438326,福利待遇高，发展平台好,4102576,"['金融', '银行', '大数据', '行业研究', '量化', '分析员']",数据分析师 （证券市场研究方向）,25k-50k,3-5年
郑州,中移在线服务有限公司,[],2000人以上,本科,不需要融资,开发/测试/运维类,移动互联网,全职,0.0,0.0,"五险一金,企业年金,带薪年假,通话餐补",3724429,"['数据挖掘', 'SPSS']",数据分析,15k-20k,3-5年
上海,上海数禾信息科技有限公司,"['股票期权', '通讯津贴', '交通补助', '午餐补助']",150-500人,硕士,不需要融资,产品/需求/项目类,"移动互联网,金融",全职,31.206393,121.600933,"移动金融,未来金矿,精英团队,助力成长",4021708,"['大数据', '数据挖掘', 'SPSS']",数据分析师,8k-12k,不限
上海,上海厚本金融信息服务有限公司,"['技能培训', '年底双薪', '股票期权', '带薪年假']",2000人以上,本科,A轮,设计,金融,全职,31.205847,121.47824599,快速的职业成长、优秀的导师、良好的福利,2309151,"['金融', '数据挖掘', 'SPSS']",数据分析师/数据工程师,8k-15k,1-3年
上海,浙江康健绿线网络技术有限公司,"['技能培训', '年底双薪', '节日礼物', '绩效奖金']",500-2000人,本科,C轮,运营,"移动互联网,医疗健康",全职,31.163303,121.399004,周末双休 带薪年假 人才推荐奖 节日福利,1969335,['大数据'],数据分析师-用户画像方向,10k-20k,3-5年
北京,北京易车互联信息技术有限公司,"['技能培训', '节日礼物', '绩效奖金', '岗位晋升']",2000人以上,本科,上市公司,开发/测试/运维类,"移动互联网,电子商务",全职,39.93812,116.32732,"上市公司,汽车互联网,七险一金,各种车福利",4085935,"['中级', '数据挖掘', '反作弊', '大数据']",JTZNYY-数据分析师,11k-22k,3-5年
深圳,深圳市环球易购电子商务有限公司,"['节日礼物', '股票期权', '带薪年假', '绩效奖金']",2000人以上,本科,上市公司,市场与销售,电子商务,全职,22.515272,113.922988,上市公司 福利待遇优厚,1574129,['活动'],数据分析师,5k-8k,不限
杭州,杭州米络科技有限公司,"['年底双薪', '绩效奖金', '专项奖金', '五险一金']",150-500人,本科,B轮,产品/需求/项目类,移动互联网,全职,30.33696063,120.11792484,高额公积金,4029662,"['直播', '大数据', '数据挖掘']",数据分析师（产品方向）,8k-15k,1-3年
成都,锦泰财产保险股份有限公司,[],500-2000人,本科,不需要融资,开发/测试/运维类,金融,全职,30.553921,104.062351,专业序列,4115813,[],总公司 - 信息技术部数据分析岗,6k-10k,不限
贵阳,贵阳高登世德金融科技有限公司,"['技能培训', '带薪年假', '岗位晋升', '扁平管理']",50-150人,本科,A轮,产品/需求/项目类,"金融,数据服务",全职,26.618572,106.645801,"周末双休,五险一金,扁平管理,金融科技",3884207,"['金融', '大数据', 'SQL']",数据分析与测试专员,6k-9k,3-5年
南京,南京领添信息技术有限公司,"['节日礼物', '股票期权', '带薪年假', '绩效奖金']",500-2000人,大专,C轮,运营/编辑/客服,"移动互联网,电子商务",全职,31.974161,118.755224,"五险一金,年度旅游,带薪年假,节日福利",3910370,"['电商', '物流', '客服', '运营', '统计']",物流数据分析专员,3k-5k,不限
北京,炫一下（北京）科技有限公司,"['带薪年假', '绩效奖金', '岗位晋升', '管理规范']",500-2000人,本科,D轮及以上,产品/需求/项目类,"移动互联网,文化娱乐",全职,40.00012007,116.48958004,激情、挑战、最大胆的突破，等你并肩作战。,3780350,"['视频', '资深', '高级', '大数据']",数据分析产品经理,20k-40k,3-5年
上海,圆通速递有限公司,"['技能培训', '免费班车', '专项奖金', '岗位晋升']",2000人以上,本科,上市公司,开发/测试/运维类,"企业服务,数据服务",全职,31.213373,121.252822,上市公司，前景好，氛围好，待遇好,3301174,"['SQL', '数据开发', 'ETL']",数据分析工程师,8k-15k,1-3年
杭州,浙江保融科技有限公司,"['年底双薪', '节日礼物', '岗位晋升', '通讯津贴']",150-500人,本科,不需要融资,开发/测试/运维类,金融,全职,30.285487,120.067429,现金流预测,3837434,"['SPSS', 'sas']",数据分析师,15k-25k,5-10年
成都,昊盈信息技术（成都）有限公司,"['年底双薪', '节日礼物', '技能培训', '绩效奖金']",150-500人,本科,不需要融资,产品/需求/项目类,"移动互联网,游戏",全职,30.65437,104.080556,"五险一金,带薪年假,定期体检,补贴",3735226,"['高级', 'SQL']",数据分析经理Data Manager,10k-20k,5-10年
北京,京东金融,"['供应链金融', '消费金融', '众筹业务', '支付业务']",2000人以上,本科,上市公司,产品/需求/项目类,金融,全职,39.78603815,116.56438326,绩效奖金、带薪休假,3204532,"['金融', 'SPSS', 'sas']",数据分析师,15k-30k,1-3年
上海,上海厚本金融信息服务有限公司,"['技能培训', '年底双薪', '股票期权', '带薪年假']",2000人以上,硕士,A轮,产品/需求/项目类,金融,全职,31.205847,121.478246,"五险一金,交通补贴,通讯补贴,餐补",3882713,"['金融', 'SPSS', 'R', 'matlab', 'VBA']",数据分析师,8k-15k,1-3年
杭州,浙江康健绿线网络技术有限公司,"['技能培训', '年底双薪', '节日礼物', '绩效奖金']",500-2000人,本科,C轮,产品/需求/项目类,"移动互联网,医疗健康",全职,29.993662,119.993591,"五险一金,周末双休,带薪年假,节日福利",3494887,"['大数据', '数据挖掘', 'SPSS', 'sas']",数据分析（华佗中医）,8k-15k,1-3年
武汉,贵阳高登世德金融科技有限公司,"['技能培训', '带薪年假', '岗位晋升', '扁平管理']",50-150人,本科,A轮,开发/测试/运维类,"金融,数据服务",全职,30.568297,114.353147,"周末双休,五险一金,带薪假期,扁平管理",3894304,"['金融', '大数据', 'SQL']",数据分析与测试专员,4k-6k,1-3年
北京,炫一下（北京）科技有限公司,"['带薪年假', '绩效奖金', '岗位晋升', '管理规范']",500-2000人,本科,D轮及以上,产品/需求/项目类,"移动互联网,文化娱乐",全职,39.999364,116.48919426,行业top 发展空间,4015286,"['大数据', '数据挖掘']",数据分析师,10k-20k,1-3年
成都,昊盈信息技术（成都）有限公司,"['年底双薪', '节日礼物', '技能培训', '绩效奖金']",150-500人,本科,不需要融资,产品/需求/项目类,"移动互联网,游戏",全职,30.65452986,104.08028,带薪年假，通讯补贴，五险一金,2610548,[],数据分析师-Data Analyst,8k-15k,不限
上海,上海优刻得信息科技有限公司,"['节日礼物', '技能培训', '股权激励计划', '代码改变世界']",500-2000人,本科,D轮及以上,开发/测试/运维类,"数据服务,企业服务",全职,31.275364,121.542318,"弹性工作,奖金丰厚,技术挑战",3114474,"['大数据', '数据挖掘']",高级数据分析师,10k-20k,3-5年
北京,北京爱奇艺科技有限公司,"['绩效奖金', '五险一金', '交通补助', '带薪年假']",2000人以上,本科,D轮及以上,运营/编辑/客服,"广告营销,文化娱乐",全职,39.983752,116.313228,六险一金 12天年假 补助,3807494,[],数据分析师,8k-15k,1-3年
上海,北京字节跳动科技有限公司,"['扁平管理', '弹性工作', '大厨定制三餐', '就近租房补贴']",500-2000人,本科,C轮,产品/需求/项目类,"移动互联网,数据服务",全职,31.153208,31.153208,六险一金，弹性工作，免费三餐，租房补贴，带薪休假，休闲下午茶，扁平管理，健身瑜伽，团队氛围好,4068858,[],数据分析师,8k-16k,1-3年
珠海,珠海伊斯佳科技股份有限公司,"['专项奖金', '股票期权', '带薪年假', '午餐补助']",150-500人,本科,上市公司,开发/测试/运维类,其他,全职,22.057233,113.24065,"活力团队,发展空间大,福利待遇佳",4113411,"['算法', '图像处理', '数据挖掘', '图形处理', '建模']",数据分析师,8k-10k,1-3年
深圳,深圳云天励飞技术有限公司,"['节日礼物', '带薪年假', '年度旅游', '开放务实']",150-500人,本科,A轮,开发/测试/运维类,移动互联网,全职,22.540685,114.094401,"技术大牛,独角兽,成长快,气氛融洽",3842793,"['高级', '中级', '图像处理', '数据挖掘', '模式识别']",大数据数据开发工程师/大数据数据分析师,15k-30k,3-5年
北京,北京猎户星空科技有限公司,"['年度旅游', '弹性工作', '领导好', '五险一金']",150-500人,本科,A轮,开发/测试/运维类,"移动互联网,硬件",全职,39.932851,116.458741,绩效奖金 午餐补贴 带薪年假 扁平管理,4090681,"['hadoop', 'BI', 'SQL']",数据分析师,15k-30k,1-3年
深圳,厦门美图之家科技有限公司,"['节日礼物', '与大牛共事', '福利健全', '五险一金']",500-2000人,本科,上市公司,产品/需求/项目类,"移动互联网,硬件",全职,116.331398,39.897445,"十亿级用户,火箭式成长,海量数据,上市公司",4052663,"['大数据', 'BI', '业务运营', '行业研究']",数据分析师（商业&amp;行业&amp;战略方向）,18k-36k,3-5年
北京,北京严肃科技有限公司,"['股票期权', '绩效奖金', '五险一金', '带薪年假']",150-500人,本科,C轮,开发/测试/运维类,"移动互联网,社交网络",全职,39.933137,116.453025,"弹性上班,带薪年假,零食无限,美女多多",3616647,"['电商', '中级', '大数据', '数据挖掘', 'SPSS']",数据分析师,15k-30k,3-5年
深圳,深圳市随手科技有限公司,"['带薪年假', '弹性工作时间', '年度旅游', '岗位晋升']",500-2000人,本科,C轮,产品/需求/项目类,"移动互联网,金融",全职,22.99368,113.993578,"互联网金融,平台好,福利优厚,氛围好",2939708,"['大数据', '数据挖掘', 'SPSS']",数据分析师（贷款营销方向）,8k-16k,1-3年
北京,京东金融,"['供应链金融', '消费金融', '众筹业务', '支付业务']",2000人以上,本科,上市公司,开发/测试/运维类,金融,全职,39.64659178,116.41874886,大平台，氛围好，发展空间大,4055058,"['数据挖掘', '大数据']",数据分析（证券和营销）,15k-30k,3-5年
上海,上海厚本金融信息服务有限公司,"['技能培训', '年底双薪', '股票期权', '带薪年假']",2000人以上,硕士,A轮,设计,金融,全职,31.205847,121.47824599,快速的职业成长、优秀的导师,2309078,['金融'],数据分析师/数据科学家,15k-30k,3-5年
杭州,浙江康健绿线网络技术有限公司,"['技能培训', '年底双薪', '节日礼物', '绩效奖金']",500-2000人,本科,C轮,运营,"移动互联网,医疗健康",全职,30.2026501,120.24715999,五险一金 弹性工作 年底双薪 免费班车,1969418,[],数据分析师-移动端用户行为分析（埋点）,8k-16k,3-5年
上海,贵阳高登世德金融科技有限公司,"['技能培训', '带薪年假', '岗位晋升', '扁平管理']",50-150人,本科,A轮,开发/测试/运维类,"金融,数据服务",全职,31.18275,121.455946,"五险一金,周末双休,扁平管理,专业培训",4024564,"['金融', '银行', '产品经理', '财务']",数据分析师,8k-15k,1-3年
成都,昊盈信息技术（成都）有限公司,"['年底双薪', '节日礼物', '技能培训', '绩效奖金']",150-500人,本科,不需要融资,市场与销售,"移动互联网,游戏",全职,,,周末双休 五险一金 带薪年假 年终多薪,1845914,[],Data Analyst 数据分析师,8k-15k,1-3年
上海,北京字节跳动科技有限公司,"['扁平管理', '弹性工作', '大厨定制三餐', '就近租房补贴']",500-2000人,本科,C轮,运营/编辑/客服,"移动互联网,数据服务",全职,31.203365,31.203365,六险一金，餐补，租房补贴，带薪休假，休闲下午茶，团队氛围好,4049452,['内容'],海外运营数据分析,7k-14k,1-3年
深圳,厦门美图之家科技有限公司,"['节日礼物', '与大牛共事', '福利健全', '五险一金']",500-2000人,本科,上市公司,产品/需求/项目类,"移动互联网,硬件",全职,22.540834,113.951672,"十亿级用户,火箭式成长,海量数据,上市公司",4121155,"['大数据', 'BI', '商业', '业务运营', 'growth hacking']",高级数据分析师（用户增长）,20k-40k,3-5年
深圳,深圳市随手科技有限公司,"['带薪年假', '弹性工作时间', '年度旅游', '岗位晋升']",500-2000人,本科,C轮,产品/需求/项目类,"移动互联网,金融",全职,22.99368,113.993578,"互联网金融,金融大数据,发展空间大,氛围好",3651951,"['专员', '大数据', '数据挖掘']",数据分析师（风控方向）,10k-20k,3-5年
上海,深圳萨摩耶互联网金融服务有限公司,"['技能培训', '年度旅游', '岗位晋升', '五险一金']",150-500人,本科,B轮,产品/需求/项目类,金融,全职,31.157714,121.559524,"福利多,晋升快",4121058,"['银行', '统计', 'sas']",数据分析师（财务分析）,10k-20k,3-5年
北京,北京智明星通软件科技有限公司,"['年终分红', '绩效奖金', '五险一金', '带薪年假']",500-2000人,本科,上市公司,开发/测试/运维类,"移动互联网,游戏",全职,39.97709506,116.351162,六险一金 免费下午茶 地铁周边,4119357,"['游戏', '大数据', '数据挖掘']",资深数据分析师,20k-35k,5-10年
杭州,华院数据技术（上海）有限公司,"['带薪年假', '绩效奖金', '定期体检', '通讯津贴']",500-2000人,硕士,C轮,开发/测试/运维类,"企业服务,数据服务",全职,116.331398,39.897445,"六险一金,10天年假,学院氛围,年度旅游",4076169,"['算法', '数据挖掘', 'SPSS']",大数据分析师,15k-25k,3-5年
杭州,杭州深知科技有限公司,"['股票期权', '带薪年假', '扁平管理', '岗位晋升']",15-50人,本科,A轮,开发/测试/运维类,数据服务,全职,30.275615,120.023484,"技术氛围,行业热点",4000487,"['金融', '数据挖掘', 'SPSS']",BI数据分析,15k-20k,1-3年
广州,广州柏视医疗科技有限公司,"['五险一金', '股票期权', '领导好', '扁平管理']",15-50人,本科,A轮,产品/需求/项目类,"医疗健康,数据服务",全职,23.083801,113.317388,"人工智能,高成长,顶级医院",4041848,"['高级', '专员', '助理', '统计', 'SPSS']",数据分析师,8k-15k,1-3年
上海,拉扎斯网络科技（上海）有限公司,"['节日礼物', '绩效奖金', '年度旅游', '岗位晋升']",2000人以上,不限,D轮及以上,产品/需求/项目类,移动互联网,全职,31.23315639,121.38277718,leader是行业内知名大牛，带你提升到新高度,3163549,"['电商', '本地生活', '资深', '高级', 'SPSS']",数据分析师（大数据部）,15k-30k,1-3年
上海,上海东方明珠新媒体股份有限公司,"['技能培训', '带薪年假', '领导好', '美女多']",500-2000人,本科,上市公司,产品/需求/项目类,"移动互联网,游戏",全职,31.17323,121.41162,新媒体上市,4093960,"['电商', '高级', '大数据', '商业', '数据挖掘']",电商数据分析师,15k-20k,3-5年
北京,京东金融,"['供应链金融', '消费金融', '众筹业务', '支付业务']",2000人以上,本科,上市公司,开发/测试/运维类,金融,全职,39.78603815,116.56438326,大平台，好机会,4018686,"['金融', '建模', '大数据', '数据挖掘']",数据分析经理,15k-30k,3-5年
北京,北京字节跳动科技有限公司,"['扁平管理', '弹性工作', '大厨定制三餐', '就近租房补贴']",500-2000人,本科,C轮,运营/编辑/客服,"移动互联网,数据服务",全职,39.977067,39.977067,六险一金，免费三餐，租房补贴，带薪休假，休闲下午茶，扁平管理，晋升空间，团队氛围好,4030022,['产品'],运营数据分析,10k-20k,3-5年
深圳,深圳市随手科技有限公司,"['带薪年假', '弹性工作时间', '年度旅游', '岗位晋升']",500-2000人,本科,C轮,产品/需求/项目类,"移动互联网,金融",全职,22.99368,113.993578,"互联网金融,平台好,发展空间大,氛围好",4073197,"['数据挖掘', 'SPSS']",数据分析师（贷款方向）,13k-25k,3-5年
广州,广州柏视医疗科技有限公司,"['五险一金', '股票期权', '领导好', '扁平管理']",15-50人,本科,A轮,开发/测试/运维类,"医疗健康,数据服务",全职,23.092889,113.290629,"人工智能,顶级团队,初创公司",3429496,"['资深', '高级', '数据挖掘', 'SPSS', 'sas']",临床数据分析师,10k-20k,1-3年
上海,深圳萨摩耶互联网金融服务有限公司,"['技能培训', '年度旅游', '岗位晋升', '五险一金']",150-500人,本科,B轮,金融类,金融,全职,31.157714,121.559524,"年终奖,期权,福利多,晋升快",3382986,['风控'],数据分析师/反欺诈策略分析师,13k-25k,3-5年
上海,拉扎斯网络科技（上海）有限公司,"['节日礼物', '绩效奖金', '年度旅游', '岗位晋升']",2000人以上,本科,D轮及以上,产品/需求/项目类,移动互联网,全职,31.23315639,121.38277718,数据领域大神等你一起来玩耍～,3462732,"['资深', '高级', '大数据', 'SPSS']",数据分析师（数据挖掘产品）,15k-30k,1-3年
厦门,厦门美图之家科技有限公司,"['节日礼物', '与大牛共事', '福利健全', '五险一金']",500-2000人,不限,上市公司,开发/测试/运维类,"移动互联网,硬件",全职,24.489558,118.179899,"海量数据,数据驱动",4121006,"['运营', '行业研究', '用户研究']",数据分析师（行业&amp;竞品）-厦门,10k-20k,3-5年
上海,上海晨之科信息技术有限公司,"['绩效奖金', '弹性工作', '扁平管理', '带薪年假']",150-500人,本科,C轮,开发/测试/运维类,"移动互联网,游戏",全职,31.175027,121.417459,"发展前景好,公司福利多,距离地铁近",4076385,"['数据挖掘', 'SPSS']",数据分析师,6k-12k,1-3年
北京,普信恒业科技发展（北京）有限公司,"['管理规范', '技能培训', '扁平管理', '弹性工作']",2000人以上,不限,上市公司,金融类,金融,全职,39.909202,116.474335,"优秀团队,知名平台",3266338,['专家'],数据分析经理-评分卡、模型、SAS,8k-12k,不限
杭州,浙江执御信息技术有限公司,"['五险一金', '带薪年假', '节日礼物', '年度旅游']",2000人以上,本科,B轮,开发/测试/运维类,"移动互联网,数据服务",全职,30.33344,120.11362,"美女如云,年终奖丰厚,发展前景大",2870403,[],数据分析（运营）,10K-15K,1-3年
北京,北京三快在线科技有限公司,"['技能培训', '绩效奖金', '岗位晋升', '领导好']",2000人以上,本科,D轮及以上,产品/需求/项目类,"移动互联网,O2O",全职,31.217836,121.417969,"年底双薪,职位晋升,团队氛围好,核心部门",3767444,"['大数据', '数据挖掘', 'SPSS', 'sas']",高级商业分析师（数据分析方向）,20k-35k,3-5年
北京,和信电子商务有限公司,"['节日礼物', '专项奖金', '股票期权', '绩效奖金']",150-500人,本科,上市公司,产品/需求/项目类,金融,全职,39.90763,116.47094,"弹性工作制,扁平化管理",3928539,"['电商', '大数据', '数据挖掘']",数据分析师,9k-18k,1-3年
深圳,平安科技（深圳）有限公司,"['节日礼物', '年度旅游', '岗位晋升', '技能培训']",2000人以上,本科,不需要融资,综合职能类,金融,全职,22.55951564,114.09938142,500强，福利待遇,3113005,"['金融', '总监', '经理', '运营']",经营分析岗（经营数据分析方向）（深圳）,10k-15k,不限
北京,云智惠（北京）投资管理有限公司,"['""""']",500-2000人,大专,未融资,产品/需求/项目类,金融,全职,39.912139,116.472788,"五险一金,带薪年假,年终奖金",4013250,"['金融', '运营']",数据分析专员,6k-8k,1-3年
上海,晋松（上海）网络信息技术有限公司,"['相互成就', '敢想敢做', '消费场景', '趋势改变习惯']",50-150人,本科,A轮,开发/测试/运维类,"移动互联网,金融",全职,31.307861,121.513693,"扁平化管理,年终多薪",4082231,"['中级', '数据挖掘', 'SPSS']",数据分析师,15k-30k,3-5年
北京,北京字节跳动科技有限公司,"['扁平管理', '弹性工作', '大厨定制三餐', '就近租房补贴']",500-2000人,本科,C轮,产品/需求/项目类,"移动互联网,数据服务",全职,39.977067,39.977067,六险一金，弹性工作，免费三餐，租房补贴，带薪休假，休闲下午茶，扁平管理，健身瑜伽，团队氛围好,4027976,[],渠道运营数据分析师,8k-16k,1-3年
深圳,深圳市随手科技有限公司,"['带薪年假', '弹性工作时间', '年度旅游', '岗位晋升']",500-2000人,本科,C轮,开发/测试/运维类,"移动互联网,金融",全职,22.99368,113.993578,"互联网金融,平台好,发展空间大,氛围好",3776822,"['中级', 'SQL', 'SPSS']",数据分析师,8k-16k,1-3年
厦门,厦门美图之家科技有限公司,"['节日礼物', '与大牛共事', '福利健全', '五险一金']",500-2000人,不限,上市公司,开发/测试/运维类,"移动互联网,硬件",全职,24.489558,118.179899,"海量数据,牛人齐聚",4120952,"['数据挖掘', '用户研究']",高级数据分析师-厦门,15k-30k,3-5年
北京,普信恒业科技发展（北京）有限公司,"['管理规范', '技能培训', '扁平管理', '弹性工作']",2000人以上,硕士,上市公司,开发/测试/运维类,金融,全职,39.909202,116.474335,"知名平台,团队气氛好,精英团队",3512284,['专家'],数据分析专员-数据挖掘,10k-20k,不限
杭州,浙江执御信息技术有限公司,"['五险一金', '带薪年假', '节日礼物', '年度旅游']",2000人以上,本科,B轮,产品/需求/项目类,"移动互联网,数据服务",全职,30.33344,120.11362,一个有梦想有挑战的公司，赶紧加入吧,3193728,"['电商', 'BI', '数据挖掘', 'SQL', 'SPSS']",数据分析,10K-15K,1-3年
北京,北京三快在线科技有限公司,"['技能培训', '绩效奖金', '岗位晋升', '领导好']",2000人以上,本科,D轮及以上,产品/需求/项目类,"移动互联网,O2O",全职,31.217836,121.417969,"年底双薪,职位晋升,团队氛围好,核心部门",3898545,"['商业', '大数据', '数据挖掘', 'SPSS']",高级数据分析师,20k-30k,3-5年
北京,和信电子商务有限公司,"['节日礼物', '专项奖金', '股票期权', '绩效奖金']",150-500人,硕士,上市公司,产品/需求/项目类,金融,全职,39.90763,116.47094,"弹性工作制,扁平化管理,每月团建,员工旅游",3658927,"['电商', '数据挖掘', 'SPSS']",数据分析师,8k-15k,1-3年
深圳,平安科技（深圳）有限公司,"['节日礼物', '年度旅游', '岗位晋升', '技能培训']",2000人以上,本科,不需要融资,开发/测试/运维类,金融,全职,22.533344,114.055755,世界500强、福利好、绩效奖金丰厚,3439323,"['高级', '数据挖掘', '数据开发']",大数据分析工程师(深圳),15k-25k,不限
上海,招商银行股份有限公司信用卡中心,"['金融科技银行', '技术创新驱动', '奋斗独立改变', '一年两次调薪']",2000人以上,本科,上市公司,开发/测试/运维类,"移动互联网,金融",全职,31.246478,121.672663,赋能文化、技术大牛,3908680,"['本地生活', '高级', '中级', '数据挖掘', 'SPSS']",数据分析岗(O2O),15k-25k,3-5年
广州,广州市网威信息技术有限公司,[],50-150人,本科,未融资,产品/需求/项目类,移动互联网,全职,23.14139,113.34491,双休,3916999,[],数据分析师,6k-10k,1-3年
西安,西安点告网络科技有限公司,"['节日礼物', '技能培训', '绩效奖金', '年度旅游']",150-500人,不限,上市公司,产品/需求/项目类,移动互联网,全职,34.207169,108.83696,五险一金、双休、带薪年假、福利好,4075889,"['移动互联网', '专员']",数据分析,3k-6k,1-3年
北京,北京创智优品科技有限公司,"['节日礼物', '顶配Mac', '小而美', '扁平管理']",150-500人,本科,A轮,开发/测试/运维类,"移动互联网,游戏",全职,39.92111,116.4334,"五险一金,年底双薪,出国旅行,包午晚餐",4038296,"['视频', '广告营销', '大数据']",数据分析,15k-30k,3-5年
杭州,杭州斯凯网络科技有限公司,"['年终分红', '绩效奖金', '股票期权', '五险一金']",500-2000人,本科,上市公司,开发/测试/运维类,"移动互联网,游戏",全职,30.26664,120.0974,"发展潜力,氛围佳",4111262,"['医疗健康', '数据挖掘', 'SPSS']",数据分析师,10k-15k,1-3年
苏州,苏州梦想人软件科技有限公司,"['技能培训', '年底双薪', '节日礼物', '绩效奖金']",150-500人,大专,B轮,产品/需求/项目类,移动互联网,全职,31.269872,120.7458,"数据分析,统计学,用户分析,SAS",4115213,"['教育', '高级', '大数据', '数据挖掘', 'SPSS']",数据分析师,7k-13k,3-5年
南京,南京科融数据系统股份有限公司,"['带薪年假', '定期体检', '年底双薪', '绩效奖金']",150-500人,本科,上市公司,开发/测试/运维类,"数据服务,金融",全职,32.040183,118.779859,"福利待遇好,团队氛围好",4086318,"['金融', '银行', 'ETL']",数据分析师,10k-20k,不限
上海,北京字节跳动科技有限公司,"['扁平管理', '弹性工作', '大厨定制三餐', '就近租房补贴']",500-2000人,本科,C轮,运营/编辑/客服,"移动互联网,数据服务",全职,31.157779,121.434308,六险一金，弹性工作，餐补，租房补贴，带薪休假，扁平管理，过亿用户，晋升空间，团队氛围好,3977321,['产品'],数据分析师,7k-14k,1-3年
北京,普信恒业科技发展（北京）有限公司,"['管理规范', '技能培训', '扁平管理', '弹性工作']",2000人以上,不限,上市公司,金融类,金融,全职,0.0,0.0,"知名公司,团队气氛好,六险一金",3347533,['专家'],风险政策专员（数据分析方向）,8k-12k,不限
北京,北京三快在线科技有限公司,"['技能培训', '绩效奖金', '岗位晋升', '领导好']",2000人以上,本科,D轮及以上,产品/需求/项目类,"移动互联网,O2O",全职,31.217836,121.417969,"年底双薪,职位晋升,团队氛围好,核心部门",3766793,['本地生活'],数据分析师,15k-30k,3-5年
北京,和信电子商务有限公司,"['节日礼物', '专项奖金', '股票期权', '绩效奖金']",150-500人,本科,上市公司,市场/商务/销售类,金融,全职,39.90763,116.47094,"员工旅游,年度奖金,弹性工作,领导好",3682748,"['广告营销', '数据挖掘', 'SPSS']",数据分析经理,12k-18k,3-5年
深圳,平安科技（深圳）有限公司,"['节日礼物', '年度旅游', '岗位晋升', '技能培训']",2000人以上,本科,不需要融资,产品/需求/项目类,金融,全职,22.55951564,114.09938142,世界500强 带薪年假 节日福利 绩效丰厚,3876989,['金融'],数据分析（深圳）,10k-15k,不限
杭州,浙江执御信息技术有限公司,"['五险一金', '带薪年假', '节日礼物', '年度旅游']",2000人以上,本科,B轮,开发/测试/运维类,"移动互联网,数据服务",全职,30.33344,120.11362,"公司前景好,自主性高,发挥空间大,海量数据",3359082,"['大数据', '数据挖掘', 'SPSS']",数据分析师,13k-20k,1-3年
上海,上海宝尊电子商务有限公司,"['年底双薪', '节日礼物', '技能培训', '绩效奖金']",2000人以上,本科,上市公司,开发/测试/运维类,电子商务,全职,31.294026,121.440163,"福利好,领导好,环境好,氛围好",3877702,"['电商', '高级', '数据挖掘']",数据分析师,15k-29k,3-5年
广州,广州威尔森信息科技有限公司,"['年底双薪', '节日礼物', '带薪年假', '绩效奖金']",150-500人,本科,未融资,开发/测试/运维类,"移动互联网,企业服务",全职,23.114822,113.333231,六险一金,3043500,"['大数据', 'SQL', '数据管理']",数据分析师,5k-7k,1-3年
北京,北京凯声文化传媒有限责任公司,"['节日礼物', '岗位晋升', '年度旅游', '扁平管理']",150-500人,本科,B轮,开发/测试/运维类,"移动互联网,教育",全职,39.996385,116.492054,"年终奖,绩效奖金,福利多多,公司氛围好",4081316,"['大数据', '数据挖掘']",高级数据分析师,18k-30k,3-5年
北京,便利蜂商贸有限公司,"['弹性工作', '美女多', '帅哥多', '领导好']",2000人以上,本科,不需要融资,产品/需求/项目类,"移动互联网,生活服务",全职,39.978087,116.49388,"海量数据,业务数据,精通SQL",3096978,"['大数据', 'SPSS', '数据管理']",数据分析师,20k-40k,3-5年
杭州,浙江核新同花顺网络信息股份有限公司,"['人工智能', '金融科技', '五险一金', '产品驱动']",2000人以上,不限,上市公司,产品/需求/项目类,"移动互联网,金融",全职,30.291923,120.045424,"用户画像,精准营销,PB",4087169,"['信息安全', '移动互联网', '大数据', 'BI', '数据挖掘']",ETL数据仓库开发/数据分析师,14k-28k,不限
苏州,江苏海豚网络科技有限公司,"['股票期权', '带薪年假', '扁平管理', '五险一金']",15-50人,硕士,天使轮,产品/需求/项目类,"移动互联网,文化娱乐",全职,31.319427,120.77052,"扁平管理,五险一金,弹性工作",4120746,"['大数据', '数据挖掘']",数据分析师,9k-15k,1-3年
北京,深圳前海金融管理学院有限公司,[],50-150人,硕士,未融资,开发/测试/运维类,"金融,教育",全职,39.949945,116.459244,"大数据,互联网,人工智能",4120708,"['医疗健康', '大数据', 'SPSS']",数据分析师,30k-50k,5-10年
杭州,杭州观数信息科技有限公司,"['股票期权', '绩效奖金', '带薪年假', '弹性工作']",15-50人,本科,A轮,产品/需求/项目类,"企业服务,数据服务",全职,30.280435,120.017969,"成长空间,牛人团队,独挡一面,期权激励",3045803,"['金融', '资深', '大数据', '数据挖掘', 'BI']",数据分析师,12k-24k,3-5年
成都,成都数联铭品科技有限公司,"['带薪年假', '绩效奖金', '扁平管理', '定期体检']",150-500人,本科,B轮,开发/测试/运维类,"电子商务,数据服务",全职,30.994233,103.99341,"五险一金,节日礼品,餐费补贴",3845490,"['数据挖掘', 'SPSS']",数据分析师,4k-8k,不限
北京,北京字节跳动科技有限公司,"['扁平管理', '弹性工作', '大厨定制三餐', '就近租房补贴']",500-2000人,本科,C轮,运营/编辑/客服,"移动互联网,数据服务",全职,39.977067,39.977067,六险一金，弹性工作，免费三餐，租房补贴，带薪休假,3965300,['产品'],商业化电商数据分析师,10k-20k,3-5年
上海,平安科技（深圳）有限公司,"['节日礼物', '年度旅游', '岗位晋升', '技能培训']",2000人以上,本科,不需要融资,开发/测试/运维类,金融,全职,31.23330004,121.52061872,世界500强 带薪年假 节日福利 绩效丰厚,3523472,"['大数据', 'BI']",数据分析师（数据仓库）(上海）,15k-20k,不限
北京,便利蜂商贸有限公司,"['弹性工作', '美女多', '帅哥多', '领导好']",2000人以上,本科,不需要融资,开发/测试/运维类,"移动互联网,生活服务",全职,39.978087,116.49388,"平台好,发展快",4079426,"['大数据', '数据挖掘']",数据工程师（数据分析方向）J10418,20k-40k,5-10年
成都,成都数联铭品科技有限公司,"['带薪年假', '绩效奖金', '扁平管理', '定期体检']",150-500人,本科,B轮,金融类,"电子商务,数据服务",全职,30.994233,103.99341,"五险一金,节日礼品,餐费补贴,大牛团队",3950774,"['金融', '风控', '大数据', '数据挖掘']",数据分析师（金融）,15k-20k,1-3年
北京,北京天天有余科技有限公司,"['技能培训', '节日礼物', '绩效奖金', '年度旅游']",15-50人,本科,A轮,开发/测试/运维类,金融,全职,39.99426,115.99339,"五险一金,绩效奖金,下午茶,扁平化管理",3801726,"['征信', '资深', '建模', '大数据', '数据挖掘']",数据分析,10k-15k,1-3年
深圳,腾讯科技(深圳)有限公司,"['免费班车', '成长空间', '年度旅游', '岗位晋升']",2000人以上,本科,上市公司,开发/测试/运维类,"移动互联网 ,游戏",全职,22.535766,113.952731,"大平台,强福利,技术氛围好",3854760,"['机器学习', 'NLP', '数据挖掘', '反作弊', '人机攻防']",数据分析师（深圳）,30k-60k,1-3年
上海,上海领健信息技术有限公司,"['股票期权', '带薪年假', '五险一金', '绩效奖金']",150-500人,本科,B轮,开发/测试/运维类,"移动互联网,医疗健康",全职,31.19907,121.58095,发展空间大 技术牛人多 微软团队,3635043,"['BI', '数据管理']",数据分析师-上海张江-00286,20k-30k,5-10年
上海,上海七牛信息技术有限公司,"['年底双薪', '节日礼物', '技能培训', '年度旅游']",150-500人,本科,D轮及以上,产品/需求/项目类,"移动互联网,数据服务",全职,31.19897,121.60363,六险一金 免费健身 绩效奖金 弹性工作,4052694,"['云计算', '企业服务', '数据挖掘', 'BI']",数据分析师,13k-26k,1-3年
北京,北京新锦成教育科技有限公司,"['绩效奖金', '股票期权', '年终分红', '专项奖金']",150-500人,本科,A轮,产品/需求/项目类,"移动互联网,教育",全职,39.982015,116.313999,"行业前景好,发展空间大,团队趣味多,弹性时间",3634542,"['专员', '大数据', '数据挖掘', '建模', '数据开发']",数据分析工程师,6k-10k,不限
上海,深圳市房多多网络科技有限公司,"['节日礼物', '带薪年假', '扁平管理', '美女多']",2000人以上,本科,C轮,开发/测试/运维类,"移动互联网,O2O",全职,31.277659,121.439913,平台好，待遇好，发展广阔，期权激励,3754328,"['房产服务', '高级', '中级', '大数据', 'SPSS']",数据分析师,15k-30k,3-5年
深圳,富途网络科技（深圳）有限公司,"['年底双薪', '腾讯系', '互联网金融', '年度体检']",150-500人,本科,C轮,产品/需求/项目类,"移动互联网,金融",全职,22.99368,113.993578,"腾讯系团队,六险一金,节假日福利,扁平管理",3884269,"['金融', '统计']",美股数据分析师,8k-15k,3-5年
广州,广州市骑鹅游信息技术咨询服务有限公司,"['绩效奖金', '年度旅游', '扁平管理', '管理规范']",50-150人,本科,A轮,开发/测试/运维类,"旅游,数据服务",全职,23.083801,113.317388,"十五天年假,技术大牛,国际化团队,扁平化管理",4012622,"['数据挖掘', '大数据', '分布式']",数据分析工程师,10k-20k,不限
广州,广州栗树信息科技有限公司,[],15-50人,大专,不需要融资,运营/编辑/客服,"移动互联网,广告营销",全职,23.111676,113.354828,"五险一金,宽松氛围,弹性上班制,下午茶",3711097,"['海外', '渠道', '运营', '英语']",数据分析师,5k-10k,不限
北京,玖富金科控股集团有限责任公司,"['绩效奖金', '免费班车', '五险一金', '部门旅游']",2000人以上,本科,C轮,产品/需求/项目类,金融,全职,39.996731,116.481135,"内部晋升,六险一金,15薪,五险一金",4100559,"['高级', '业务运营', '大数据', '数据挖掘', 'SPSS']",数据分析师（客服部）,15k-25k,3-5年
上海,上海派兰数据科技有限公司,"['带薪年假', '午餐补助', '领导好', '扁平管理']",少于15人,硕士,天使轮,技术,"数据服务,医疗健康",全职,31.19494301,121.42074499,福利好 带薪年假 弹性工作 高能TEAM,1400917,['大数据'],数据分析师,7k-9k,不限
北京,北京字节跳动科技有限公司,"['扁平管理', '弹性工作', '大厨定制三餐', '就近租房补贴']",500-2000人,本科,C轮,综合职能类,"移动互联网,数据服务",全职,39.971268,116.332602,六险一金，弹性工作，免费三餐，租房补贴,3970092,"['招聘', '人事', '薪酬福利', '员工关系', 'HRBP']",HR数据分析师,15k-30k,3-5年
贵阳,成都数联铭品科技有限公司,"['带薪年假', '绩效奖金', '扁平管理', '定期体检']",150-500人,本科,B轮,开发/测试/运维类,"电子商务,数据服务",全职,26.647661,106.630153,"五险一金,各种补贴,团队聚餐",3515527,"['征信', 'SPSS', 'sas']",数据分析师（贵阳）,6k-8k,1-3年
深圳,腾讯科技(深圳)有限公司,"['免费班车', '成长空间', '年度旅游', '岗位晋升']",2000人以上,本科,上市公司,开发/测试/运维类,"移动互联网 ,游戏",全职,22.535766,113.952731,"高薪,名企,待遇好",3723649,"['信息安全', '电商', '高级', '中级', '数据挖掘']",TEG13-数据分析工程师（深圳）,15k-30k,1-3年
北京,玖富金科控股集团有限责任公司,"['绩效奖金', '免费班车', '五险一金', '部门旅游']",2000人以上,本科,C轮,产品/需求/项目类,金融,全职,39.996731,116.481135,"晋升空间,免费班车,六险一金,15薪",4100578,"['大数据', '业务运营', 'SPSS', '数据管理']",数据分析专员（客服部）,8k-15k,3-5年
上海,上海派兰数据科技有限公司,"['带薪年假', '午餐补助', '领导好', '扁平管理']",少于15人,硕士,天使轮,开发/测试/运维类,"数据服务,医疗健康",全职,30.994061,120.993464,"医疗大数据,机器学习,项目管理,前景好",3828670,"['中级', '机器学习', '数据管理']",数据分析主管,8k-12k,1-3年
北京,北京万维博石农业科技有限公司,"['岗位晋升', '五险一金', '带薪年假', '绩效奖金']",50-150人,本科,A轮,开发/测试/运维类,"移动互联网,O2O",全职,39.958426,116.449295,"餐补,地铁近,五险一金",4048989,"['大数据', '数据挖掘']",数据分析师,10k-18k,3-5年
杭州,浙江菜鸟供应链管理有限公司,"['股票期权', '五险一金', '带薪年假', '免费班车']",2000人以上,本科,B轮,产品/需求/项目类,电子商务,全职,30.288853,120.076481,"数据分析,excel,sql,呼叫中心",3793509,['业务运营'],商业数据分析专家,15k-30k,5-10年
上海,京东商城,"['年底双薪', '节日礼物', '技能培训', '岗位晋升']",2000人以上,本科,上市公司,产品/需求/项目类,电子商务,全职,31.221087,121.360459,"大平台,福利好,牛人多,氛围佳",3424612,"['大数据', '数据挖掘', 'SPSS']",数据分析师岗,8k-16k,1-3年
上海,上海信而富企业管理有限公司,"['年终分红', '年底双薪', '五险一金', '带薪年假']",2000人以上,硕士,上市公司,金融类,金融,全职,31.22304,121.359955,"上市公司,五险一金,年终奖,餐补",4110065,"['风控', '大数据', '数据挖掘', '建模']",SAS数据分析师,8k-15k,不限
上海,上海轩言网络信息科技有限公司,"['绩效奖金', '专项奖金', '定期体检', '免费晚餐']",50-150人,本科,A轮,产品/需求/项目类,"电子商务,O2O",全职,30.99343,120.993998,晋升空间大,2943690,"['电商', '金融', '云计算', '大数据', '数据挖掘', 'SPSS']",数据分析师,10k-20k,3-5年
北京,北京麒麟合盛科技有限公司,"['技能培训', '节日礼物', '丰富的团建', '扁平管理']",150-500人,硕士,B轮,开发/测试/运维类,移动互联网,全职,39.996,116.480792,"成长空间大,学习",2928330,"['移动互联网', '广告营销', '专家', 'Facebook', 'Admob']",广告数据分析师,15k-30k,5-10年
北京,耀盛投资管理集团有限公司,"['午餐补助', '带薪年假', '绩效奖金']",150-500人,本科,不需要融资,产品/需求/项目类,"金融,移动互联网",全职,39.905543,116.471102,"上升空间,团队氛围,地铁周边,弹性工时",4120477,"['资深', '大数据', '数据挖掘']",数据分析工程师,20k-30k,3-5年
杭州,杭州趣维科技有限公司,"['带薪年假', '年度旅游', '定期体检', '五险一金']",150-500人,本科,B轮,开发/测试/运维类,"移动互联网,文化娱乐",全职,30.272873,120.123836,"六险一金,弹性工时,绩效奖金,发展平台",4013954,"['教育', '视频', '工具软件', '数据挖掘', 'SPSS']",数据分析师,8k-16k,1-3年
深圳,广州依时货拉拉科技有限公司,"['技能培训', '专项奖金', '绩效奖金', '岗位晋升']",500-2000人,本科,C轮,开发/测试/运维类,"移动互联网,O2O",全职,22.56354,114.056338,"职位发展,晋升空间,团队氛围好",3782170,"['大数据', '数据挖掘', 'SPSS']",数据分析师,10k-20k,3-5年
上海,上海思华科技股份有限公司,"['节日礼物', '年底双薪', '专项奖金', '股票期权']",150-500人,本科,D轮及以上,开发/测试/运维类,移动互联网,全职,31.20278946,121.60480567,五险一金 商业险 带薪事病假,3053409,"['金融', '数据挖掘', 'SPSS']",大数据分析工程师,8k-15k,1-3年
北京,北京字节跳动科技有限公司,"['扁平管理', '弹性工作', '大厨定制三餐', '就近租房补贴']",500-2000人,本科,C轮,运营/编辑/客服,"移动互联网,数据服务",全职,39.977067,39.977067,六险一金，免费三餐，租房补贴,3957889,['产品'],商业化资深数据分析师,8k-16k,3-5年
成都,成都数联铭品科技有限公司,"['带薪年假', '绩效奖金', '扁平管理', '定期体检']",150-500人,本科,B轮,开发/测试/运维类,"电子商务,数据服务",全职,30.994233,103.99341,"五险一金,节日礼品,餐费补贴",3865950,"['大数据', '数据挖掘', '行业研究', 'SPSS']",数据分析师（指数）,4k-7k,不限
北京,玖富金科控股集团有限责任公司,"['绩效奖金', '免费班车', '五险一金', '部门旅游']",2000人以上,本科,C轮,产品/需求/项目类,金融,全职,39.996731,116.481135,"15薪,六险一金,免费班车,晋升通道",3719257,"['银行', '电商', 'BI', '可视化', '业务运营']",数据分析师,10k-20k,3-5年
北京,北京麒麟合盛科技有限公司,"['技能培训', '节日礼物', '丰富的团建', '扁平管理']",150-500人,本科,B轮,产品/需求/项目类,移动互联网,全职,39.996,116.480792,"扁平化管理,年底双薪,餐补,房补",3553432,"['数据挖掘', 'SPSS', 'sas']",数据分析师（大数据）,20k-40k,1-3年
杭州,广州依时货拉拉科技有限公司,"['技能培训', '专项奖金', '绩效奖金', '岗位晋升']",500-2000人,本科,C轮,运营/编辑/客服,"移动互联网,O2O",全职,30.306186,120.330693,"做五休二,五险一金,晋升空间大,偏平化管理",3740788,"['数据挖掘', '用户研究']",数据运营（数据分析、Excel）,4k-8k,1-3年
杭州,上海袋虎信息技术有限公司,"['股票期权', '弹性工作', '美女多', '牛人多']",150-500人,大专,A轮,运营/编辑/客服,"移动互联网,医疗健康",全职,30.207361,120.221339,"有大牛,爆发性行业,扁平化",3888476,"['媒体', '资深', '高级', '专员']",数据分析师,8k-16k,1-3年
上海,上海印闪网络科技有限公司,"['弹性工作', '帅哥多', '美女多', '领导好']",50-150人,本科,A轮,开发/测试/运维类,"移动互联网,金融",全职,31.190077,121.425315,"大牛团队,福利多多,期权",3862833,"['专家', '资深', '高级', '数据挖掘']",数据分析师(贷后风控）,15k-30k,1-3年
北京,耀盛投资管理集团有限公司,"['午餐补助', '带薪年假', '绩效奖金']",150-500人,本科,不需要融资,产品/需求/项目类,"金融,移动互联网",全职,39.905543,116.471102,"上升空间,五险一金,弹性工作,地铁周边",4120415,"['金融', '资深', '大数据', '数据挖掘', 'sas']",数据分析师,15k-25k,3-5年
成都,成都尼毕鲁科技股份有限公司,"['技能培训', '节日礼物', '年底双薪', '带薪年假']",150-500人,本科,不需要融资,产品/需求/项目类,"移动互联网,游戏",全职,30.54825,104.069711,"六险一金,发展空间大,导师手把手,工作福利佳",3939335,"['商业', '业务运营', '游戏策划', '数值']",游戏运营专员-数据分析方向,10k-20k,不限
上海,上海即果信息技术有限公司,"['带薪年假', '扁平管理', '国外旅游', '氛围活泼']",50-150人,本科,B轮,产品/需求/项目类,移动互联网,全职,31.30609,121.51018,"产品优秀,团队实力强,氛围自由,福利满满",3402184,"['大数据', '数据挖掘', 'SPSS', 'R']",数据分析师,10k-20k,1-3年
北京,北京快快网络技术有限公司,"['员工福利丰富', '高薪期权', '热门行业', '免费工作餐']",150-500人,本科,B轮,产品/需求/项目类,金融,全职,39.99426,115.99339,"扁平化管理,弹性工时,工作居住证,六险一金",3929830,"['金融', '资深', '大数据', '数据挖掘']",数据分析经理,20k-30k,5-10年
北京,北京秒针信息咨询有限公司,"['节日礼物', '技能培训', '年底双薪', '技术精英众多']",150-500人,本科,D轮及以上,运营,"数据服务,广告营销",全职,39.99724905,116.48001,即将上市平台+众名校大牛,1064711,['广告营销'],数据分析专员,4k-8k,1-3年
深圳,深圳市万普拉斯科技有限公司,"['五险一金', '通讯津贴', '带薪年假', '节日礼物']",500-2000人,本科,未融资,开发/测试/运维类,电子商务,全职,22.99368,113.993578,"股票期权,丰厚年终奖,扁平化管理,多元化氛围",3568870,"['移动互联网', '数据挖掘', '大数据', 'SQL', '数据管理']",ROM数据分析工程师,8k-15k,1-3年
北京,时空幻境（北京）科技有限公司,"['年底双薪', '定期体检', '带薪年假', '绩效奖金']",50-150人,本科,不需要融资,产品/需求/项目类,游戏,全职,39.96037,116.440346,公司前景好 扁平化管理 开放式办公环境,3380129,"['游戏', 'BI', '用户研究']",游戏数据分析,15k-30k,3-5年
上海,彪洋科技（北京）有限公司,"['年底双薪', '带薪年假', '年度旅游', '带薪病假']",150-500人,本科,不需要融资,开发/测试/运维类,"移动互联网,广告营销",全职,0.0,0.0,"七险一金,员工旅游,弹性工作,外企平台",3933852,"['BI', '数据可视化']",高级数据分析师,15k-25k,5-10年
北京,北京字节跳动科技有限公司,"['扁平管理', '弹性工作', '大厨定制三餐', '就近租房补贴']",500-2000人,本科,C轮,产品/需求/项目类,"移动互联网,数据服务",全职,39.971268,39.971268,六险一金，弹性工作，免费三餐，租房补贴，扁平管理，过亿用户，职业大牛,3908118,[],高级数据分析师,15k-30k,3-5年
北京,北京麒麟合盛科技有限公司,"['技能培训', '节日礼物', '丰富的团建', '扁平管理']",150-500人,本科,B轮,产品/需求/项目类,移动互联网,全职,39.996,116.480792,"六险一金,打车补助,带薪年假,股权激励",4056506,"['业务运营', '统计', 'SPSS']",数据分析专员,8k-15k,1-3年
上海,上海印闪网络科技有限公司,"['弹性工作', '帅哥多', '美女多', '领导好']",50-150人,本科,A轮,运营/编辑/客服,"移动互联网,金融",全职,31.193445,121.431228,"出国旅游,福利好,待遇好,氛围佳",3598670,"['银行', '风控', '统计', 'SPSS', 'sas']",贷后数据分析专员,15k-30k,不限
上海,上海即果信息技术有限公司,"['带薪年假', '扁平管理', '国外旅游', '氛围活泼']",50-150人,本科,B轮,产品/需求/项目类,移动互联网,全职,31.30609,121.51018,"产品优秀,团队实力强,氛围自由,福利满满",3962570,"['大数据', '数据挖掘', 'SPSS', 'R']",数据分析师,10k-20k,1-3年
深圳,深圳市万普拉斯科技有限公司,"['五险一金', '通讯津贴', '带薪年假', '节日礼物']",500-2000人,本科,未融资,运营/编辑/客服,电子商务,全职,22.99368,113.993578,五险一金,2931689,"['电商', '社区', 'seo', 'SEM']",电商数据分析运营专员,7k-14k,1-3年
北京,彪洋科技（北京）有限公司,"['年底双薪', '带薪年假', '年度旅游', '带薪病假']",150-500人,本科,不需要融资,产品/需求/项目类,"移动互联网,广告营销",全职,39.99426,115.99339,"七险一金,年终多薪,弹性工作,带薪假期",4118570,"['高级', '专员', '大数据', '数据挖掘', 'SPSS']",数据分析师,10k-20k,3-5年
上海,上海犇众信息技术有限公司,"['节日礼物', '股票期权', '带薪年假', '年度旅游']",15-50人,大专,天使轮,产品/需求/项目类,移动互联网,全职,31.11196,121.37782,"弹性工作制,商业保险,公司旅游,带薪年假",4095496,"['python', 'C#/C++']",数据分析工程师,15k-20k,1-3年
北京,上海谦问万答吧云计算科技有限公司,"['帅哥多', '美女多', '股票期权', '年底双薪']",150-500人,本科,C轮,开发/测试/运维类,"移动互联网,教育",全职,40.00019,116.488496,福利待遇好 发展空间大,3953319,"['教育', '数据挖掘', '用户研究']",数据分析师,15k-25k,3-5年
北京,北京互连众信科技有限公司,"['带薪年假', '统一午餐', '五险一金', '弹性工作']",150-500人,本科,B轮,运营/编辑/客服,"移动互联网,O2O",全职,39.934299,116.47,"薪资福利,大咖多,自助午餐,七险一金",3427794,"['SQL', 'SPSS', '大数据分析']",数据分析师,8k-15k,1-3年
北京,北京三快在线科技有限公司,"['技能培训', '绩效奖金', '岗位晋升', '领导好']",2000人以上,本科,D轮及以上,产品/需求/项目类,"移动互联网,O2O",全职,40.007096,116.48864,"平台好,发展空间大",3167634,"['旅游', '商业', 'SQL', 'SPSS', 'sas']",高级数据分析师,20k-30k,3-5年
广州,北京熵商科技有限责任公司,[],15-50人,本科,不需要融资,产品/需求/项目类,"移动互联网,数据服务",全职,23.03616,113.37591,"周末双休,节假日福利,六险一金,地铁周边",3791785,"['金融', '信息安全', '大数据']",数据分析师（金融风控模型方向）,8k-15k,不限
广州,广州市诚毅科技软件开发有限公司,"['年终分红', '绩效奖金', '五险一金', '带薪年假']",150-500人,本科,不需要融资,产品/需求/项目类,企业服务,全职,23.08674,113.316586,"扁平管理,专业培训,6险一金,5天7小时",4120297,"['媒体', '大数据', 'BI', '可视化', '商业']",数据分析师,10k-20k,1-3年
深圳,深圳微品致远信息科技有限公司,"['股票期权', '带薪年假', '绩效奖金', '五险一金']",150-500人,大专,C轮,开发/测试/运维类,"移动互联网,电子商务",全职,22.544498,113.945967,带薪年假 定期体检 弹性工作 五险一金,3960691,"['运营', '大数据']",数据分析专员,8k-10k,1-3年
武汉,武汉智领云科技有限公司,"['股票期权', '弹性工作', '绩效奖金', '五险一金']",15-50人,本科,天使轮,开发/测试/运维类,"数据服务,移动互联网",全职,30.457982,114.410564,"大数据分析,数据挖掘,机器学习,人工智能",2716397,"['算法', '机器学习', '深度学习', '数据挖掘']",大数据分析师,10k-20k,3-5年
上海,携程计算机技术（上海）有限公司,"['绩效奖金', '股票期权', '五险一金', '交通补助']",2000人以上,本科,上市公司,开发/测试/运维类,"移动互联网,旅游",全职,31.22061947,121.35631021,弹性工时 旅游福利 海量数据,3081631,"['大数据', '数据挖掘']",数据分析师/挖掘,15k-20k,1-3年
北京,北京字节跳动科技有限公司,"['扁平管理', '弹性工作', '大厨定制三餐', '就近租房补贴']",500-2000人,本科,C轮,产品/需求/项目类,"移动互联网,数据服务",全职,39.971268,39.971268,六险一金，弹性工作，免费三餐，租房补贴，过亿用户，职业大牛,3899903,[],行业数据分析师,15k-30k,1-3年
北京,北京麒麟合盛科技有限公司,"['技能培训', '节日礼物', '丰富的团建', '扁平管理']",150-500人,不限,B轮,市场与销售,移动互联网,全职,39.99502389,116.47971721,股票期权，团建丰富，扁平管理，五险一金,1447884,"['移动互联网', 'BI']",商业数据分析,15k-30k,1-3年
深圳,深圳市万普拉斯科技有限公司,"['五险一金', '通讯津贴', '带薪年假', '节日礼物']",500-2000人,本科,未融资,运营/编辑/客服,电子商务,全职,22.99368,113.993578,五险一金,3565271,"['电商', '广告营销', '高级', '运营']",电商数据分析师,10k-15k,1-3年
上海,彪洋科技（北京）有限公司,"['年底双薪', '带薪年假', '年度旅游', '带薪病假']",150-500人,本科,不需要融资,开发/测试/运维类,"移动互联网,广告营销",全职,31.211582,121.430956,"七险一金,弹性工作,年底双薪",3463744,"['数据挖掘', 'SPSS']",初级数据分析师,5k-7k,不限
北京,北京互连众信科技有限公司,"['带薪年假', '统一午餐', '五险一金', '弹性工作']",150-500人,本科,B轮,开发/测试/运维类,"移动互联网,O2O",全职,39.934299,116.47,"年底多薪,七险一金,自助午餐",3615419,"['大数据', '数据挖掘']",数据分析（贷后）,10k-20k,3-5年
北京,北京三快在线科技有限公司,"['技能培训', '绩效奖金', '岗位晋升', '领导好']",2000人以上,本科,D轮及以上,产品/需求/项目类,"移动互联网,O2O",全职,40.007096,116.48864,平台好，发展空间大,2766824,"['旅游', '商业']",数据分析-业务分析方向,15k-25k,1-3年
深圳,众安在线财产保险股份有限公司,"['定期体检', '每天下午茶', '六险一金', '年度体检']",2000人以上,本科,上市公司,产品/需求/项目类,金融,全职,22.522324,113.937046,大平台，前景好，福利多，弹性上班,4054441,[],数据分析工程师（深圳）,9k-16k,1-3年
北京,北京小度信息科技有限公司,"['绩效奖金', '股票期权', '交通补助', '定期体检']",2000人以上,本科,不需要融资,运营/编辑/客服,"移动互联网,O2O",全职,40.038545,116.308398,"五险一金,餐补",3807907,"['数据挖掘', 'SPSS', 'sas']",高级数据分析师,10k-20k,3-5年
深圳,深圳市金泰长丰科技有限公司,"['绩效奖金', '午餐补助', '五险一金', '最低14薪']",50-150人,本科,不需要融资,产品/需求/项目类,游戏,全职,22.554378,113.939614,"五险一金,年底双薪,周末双休,节日礼品",4120239,"['大数据', '数据挖掘']",游戏数据分析,8k-15k,1-3年
北京,北京国双科技有限公司,"['年度旅游', '节日礼物', '年底双薪', '带薪年假']",500-2000人,本科,上市公司,产品/需求/项目类,"数据服务,企业服务",全职,39.976021,116.332441,六险一金 上市企业 试用期薪资全额发放,3331513,"['大数据', '业务运营', 'growth hacking', 'SPSS', 'sas']",数据分析师（新媒体）,8k-15k,1-3年
北京,便利蜂商贸有限公司,"['弹性工作', '美女多', '帅哥多', '领导好']",2000人以上,本科,不需要融资,开发/测试/运维类,"移动互联网,生活服务",全职,39.977131,116.493556,"团队好,有竞争力",4060498,"['资深', '高级', '中级', '初级', '数据挖掘']",数据工程师（数据分析方向）,25k-40k,3-5年
北京,北京九斗数据服务有限公司,"['扁平管理', '领导好', '五险一金', '年底双薪']",15-50人,本科,A轮,产品/需求/项目类,金融,全职,39.95975,116.4645,"弹性工作,技能培训",2982399,"['金融', '银行', '证券', '量化', '基金']",应届金融数据分析师,6k-10k,1年以下
长沙,长沙阡寻信息科技有限公司,"['五险一金', '年底双薪', '绩效奖金', '周末双休']",15-50人,本科,A轮,金融类,数据服务,全职,28.230937,112.882369,"五险一金,带薪年假,周末双休,午餐交通补",3834507,"['金融', '股票', '证券', '期货', '分析员']",大数据分析师/数据挖掘工程师,10k-20k,1-3年
上海,拉扎斯网络科技（上海）有限公司,"['节日礼物', '绩效奖金', '年度旅游', '岗位晋升']",2000人以上,本科,D轮及以上,开发/测试/运维类,移动互联网,全职,31.23297317,121.38145144,公司平台大 福利待遇好 团队氛围佳,3170839,"['大数据', '数据挖掘', 'SPSS']",资深数据分析师,20k-30k,3-5年
广州,广州手趣网络科技有限公司,"['扁平管理', '领导好', '工作餐', '周末双休']",50-150人,大专,不需要融资,市场/商务/销售类,游戏,全职,23.143817,113.347341,"周末双休,年底双薪,六险一金,包工作餐",3908858,"['移动互联网', '广告营销', '渠道', '推广', 'SEM']",数据分析（广告投放方向）,4k-8k,1-3年
北京,北京字节跳动科技有限公司,"['扁平管理', '弹性工作', '大厨定制三餐', '就近租房补贴']",500-2000人,本科,C轮,产品/需求/项目类,"移动互联网,数据服务",全职,39.971268,39.971268,六险一金，弹性工作，免费三餐，团队氛围好,3589379,[],数据分析师,15k-30k,1-3年
北京,北京互连众信科技有限公司,"['带薪年假', '统一午餐', '五险一金', '弹性工作']",150-500人,本科,B轮,开发/测试/运维类,"移动互联网,O2O",全职,39.934299,116.47,"优秀团队,年度多薪",3493586,"['中级', '大数据', '数据挖掘']",数据分析,10k-20k,1-3年
北京,北京三快在线科技有限公司,"['技能培训', '绩效奖金', '岗位晋升', '领导好']",2000人以上,本科,D轮及以上,开发/测试/运维类,"移动互联网,O2O",全职,40.007096,116.48864,互联网公司，大平台，待遇好,2728418,"['旅游', '资深']",数据分析师,15k-25k,1-3年
北京,北京小度信息科技有限公司,"['绩效奖金', '股票期权', '交通补助', '定期体检']",2000人以上,本科,不需要融资,运营/编辑/客服,"移动互联网,O2O",全职,40.038545,116.308398,"核心部门,五险一金,餐补",4012032,"['大数据', '数据挖掘', 'sas']",数据分析师,15k-25k,3-5年
北京,北京九斗数据服务有限公司,"['扁平管理', '领导好', '五险一金', '年底双薪']",15-50人,本科,A轮,开发/测试/运维类,金融,全职,39.95975,116.4645,"弹性工作,技能培训,顶级团队,五险一金",3992241,"['金融', '证券']",资深数据分析师,10k-15k,1-3年
上海,拉扎斯网络科技（上海）有限公司,"['节日礼物', '绩效奖金', '年度旅游', '岗位晋升']",2000人以上,本科,D轮及以上,开发/测试/运维类,移动互联网,全职,31.23297317,121.38145144,公司平台大 福利待遇好 团队氛围佳,3170832,"['金融', '信息安全', '数据挖掘', 'SPSS']",高级数据分析师,15k-25k,3-5年
上海,上海艾融软件股份有限公司,"['互联网金融', '股票期权', '顶级银行工程', '技术大牛']",500-2000人,本科,上市公司,开发/测试/运维类,"移动互联网,金融",全职,31.225758,121.55039,"五险一金,餐补,定期体检",3997835,['数据挖掘'],大数据分析师,10k-15k,1-3年
北京,北京慕课科技中心,"['节日礼物', '技能培训', '节日礼品卡', '月度团建']",50-150人,本科,不需要融资,开发/测试/运维类,"移动互联网,教育",兼职,39.956947,116.314673,数据分析,3819048,"['电商', 'EXCEL', 'SPSS', 'sas']",数据分析讲师,10k-20k,1-3年
上海,上海麦致信息技术有限公司,"['节日礼物', '期权激励', '奖金分红丰厚', '年度旅游']",500-2000人,本科,上市公司,产品/需求/项目类,"移动互联网,广告营销",全职,31.20444,121.46051,"海外产品,弹性工作制,带薪年假",3737048,"['高级', '大数据', '数据挖掘', '数据开发']",数据分析师,10k-20k,3-5年
上海,国泰君安证券股份有限公司,"['技能培训', '年底双薪', '免费班车', '带薪年假']",2000人以上,本科,上市公司,开发/测试/运维类,金融,全职,31.24771,121.674038,国内综合实力最强的证券公司之一,2616414,"['金融', '大数据']",移动平台-数据分析工程师,10k-20k,3-5年
上海,烟台欣和企业食品有限公司,"['技能培训', '节日礼物', '绩效奖金', '岗位晋升']",2000人以上,大专,不需要融资,运营/编辑/客服,生活服务,全职,31.21825,121.3547,"五险一金,年底双薪,弹性工作,晋升机会",4088509,"['电商', '数据挖掘', 'SPSS']",资深数据分析师（生鲜电商/零售）,15k-25k,5-10年
北京,北京信链科技有限公司,"['弹性工作', '大牛多', '五险一金', '年度旅游']",15-50人,本科,不需要融资,金融类,"移动互联网,金融",全职,39.996,116.480792,"全年18薪,团队氛围好,年底出国游,六险一金",4120085,"['建模', '助理', '风控', '主管', '行业研究', '策略设计']",数据分析师,5k-10k,1年以下
北京,北京智阅网络科技有限公司,"['绩效奖金', '年终分红', '专项奖金', '五险一金']",150-500人,本科,上市公司,运营/编辑/客服,"移动互联网,文化娱乐",全职,0.0,0.0,"上市公司,五险一金,弹性工作,周末双休",4113662,"['汽车', '运营', '数据挖掘']",数据分析师,6k-12k,1-3年
上海,京东商城,"['年底双薪', '节日礼物', '技能培训', '岗位晋升']",2000人以上,本科,上市公司,开发/测试/运维类,电子商务,全职,31.221087,121.360459,"平台大,牛人多",3871811,"['电商', '移动互联网', '产品经理', '大数据']",SQL数据分析师,15k-25k,1-3年
北京,北京东方车云信息技术有限公司,"['节日礼物', '绩效奖金', '岗位晋升', '年度旅游']",500-2000人,本科,C轮,运营/编辑/客服,"移动互联网,O2O",全职,39.904844,116.433781,移动互联网领先产品,4071263,"['资深', '高级', '大数据', '数据挖掘']",数据分析师,15k-25k,3-5年
北京,北京字节跳动科技有限公司,"['扁平管理', '弹性工作', '大厨定制三餐', '就近租房补贴']",500-2000人,本科,C轮,综合职能类,"移动互联网,数据服务",全职,39.977067,39.977067,六险一金，免费三餐，租房补贴,3545132,"['招聘', '人事', '薪酬福利', '员工关系', 'HRBP']",HR数据分析师,8k-12k,1-3年
北京,北京三快在线科技有限公司,"['技能培训', '绩效奖金', '岗位晋升', '领导好']",2000人以上,本科,D轮及以上,产品/需求/项目类,"移动互联网,O2O",全职,40.007096,116.48864,"平台大,福利好,发展好",3900137,"['大数据', 'SPSS', 'sas']",高级数据分析师,20k-30k,3-5年
北京,北京小度信息科技有限公司,"['绩效奖金', '股票期权', '交通补助', '定期体检']",2000人以上,本科,不需要融资,运营/编辑/客服,"移动互联网,O2O",全职,40.038545,116.308398,"晋升空间,餐补",3744159,"['本地生活', '数据挖掘', 'SPSS', 'sas']",数据分析,10k-20k,3-5年
上海,拉扎斯网络科技（上海）有限公司,"['节日礼物', '绩效奖金', '年度旅游', '岗位晋升']",2000人以上,本科,D轮及以上,产品/需求/项目类,移动互联网,全职,31.23297317,121.38145144,公司平台大 福利待遇好 团队氛围佳,3170842,"['资深', '大数据', '数据挖掘']",数据分析专家,25k-40k,5-10年
上海,国泰君安证券股份有限公司,"['技能培训', '年底双薪', '免费班车', '带薪年假']",2000人以上,硕士,上市公司,产品/需求/项目类,金融,全职,31.241287,121.506537,国内综合实力最强的证券公司之一,2615262,[],大数据分析师,20k-40k,3-5年
北京,北京易数科技有限公司,"['股票期权', '绩效奖金', '扁平管理', '弹性工作']",150-500人,本科,A轮,市场与销售,"企业服务,数据服务",全职,40.00790013,116.45061199,有期权、硅谷平等文化、牛人共事、技术驱动,1389900,"['企业服务', 'BI']",商业数据分析师,20k-40k,3-5年
上海,上海任意门科技有限公司,"['外企氛围', '年轻活力娱乐', '有才华的团队', '技术导向']",15-50人,本科,B轮,开发/测试/运维类,"社交网络,文化娱乐",全职,31.184192,121.30513,"高薪资,股权激励",3151378,"['大数据', '数据挖掘']",数据仓库与数据分析工程师,15K-30K,3-5年
北京,北京易车互联信息技术有限公司,"['技能培训', '节日礼物', '绩效奖金', '岗位晋升']",2000人以上,本科,上市公司,运营/编辑/客服,"移动互联网,电子商务",全职,39.93812,116.32732,"上市公司,各种车福利,七险一金,绩效奖金",4051897,"['汽车', '广告营销', 'AE', '广告投放']",JTPPYX—销售运营专员（数据分析）,5k-8k,1-3年
北京,南京蓝鲸人网络科技有限公司,"['扁平管理', '弹性工作', '氛围融洽', '牛人多']",50-150人,本科,A轮,产品/需求/项目类,"移动互联网,社交网络",全职,39.976877,116.344462,"牛人多,10点上班,工作日出游,弹性工作制",3507411,"['资深', '高级', '运营', '大数据', 'SPSS']",数据分析师,20k-40k,5-10年
苏州,苏州触达信息技术有限公司,"['股票期权', '公租房', '带薪年假', '绩效奖金']",15-50人,本科,B轮,开发/测试/运维类,"移动互联网,硬件",全职,31.2776,120.742377,"五险一金,年底双薪,弹性工作,节日福利",2705085,"['机器学习', '数据挖掘', '人工智能', '算法']",大数据分析工程师,12k-24k,不限
上海,北京爱论答科技有限公司,"['股票期权', '年底双薪', '通讯津贴', '弹性工作']",150-500人,本科,A轮,运营/编辑/客服,"移动互联网,教育",全职,31.228478,121.440983,"人工智能,硅谷文化,弹性工作,下午茶",4092183,"['渠道', '活动', '大数据', '活动运营']",运营数据分析师,6k-12k,1-3年
北京,网易（杭州）有限公司,"['节日礼物', '技能培训', '免费班车', '带薪年假']",2000人以上,本科,上市公司,设计,"电子商务,移动互联网",全职,39.99426,115.99339,"绩效奖金,年底双薪,免费吃饭,交通补助",2332070,[],数据分析师,15k-20k,不限
杭州,杭州旦悦科技有限公司,"['专项奖金', '年底双薪', '绩效奖金', '五险一金']",500-2000人,本科,B轮,产品/需求/项目类,教育,全职,30.19274174,120.2028167,平台发展快,3614259,"['专员', '业务运营', '数据挖掘', 'SPSS']",数据分析师(Bi),6k-10k,1-3年
北京,北京芯盾时代科技有限公司,"['高薪', '股票期权', '内荐重奖', '餐补话补']",50-150人,本科,B轮,开发/测试/运维类,"移动互联网,信息安全",全职,39.99426,115.99339,"五险一金,高薪,内荐重奖,晋升空间",4005151,"['金融', '游戏', '数据挖掘']",大数据风控数据分析师,15k-30k,3-5年
杭州,浙江同花顺云软件有限公司,[],2000人以上,硕士,上市公司,产品/需求/项目类,"移动互联网,金融",全职,30.291923,120.045424,"上市公司,智能投资",4071345,"['高级', '专员', '助理', '大数据', '数据挖掘']",数据分析师,8k-15k,不限
北京,北京字节跳动科技有限公司,"['扁平管理', '弹性工作', '大厨定制三餐', '就近租房补贴']",500-2000人,本科,C轮,产品/需求/项目类,"移动互联网,数据服务",全职,39.977067,39.977067,六险一金，弹性工作，免费三餐，租房补贴，休闲下午茶，扁平管理，晋升空间,3523661,[],数据分析经理,13k-25k,3-5年
北京,北京小度信息科技有限公司,"['绩效奖金', '股票期权', '交通补助', '定期体检']",2000人以上,本科,不需要融资,运营/编辑/客服,"移动互联网,O2O",全职,40.038545,116.308398,"晋升空间大,餐补,五险一金",4055416,"['大数据', '数据挖掘', 'sas']",（高级）数据分析师-战略中心,15k-25k,不限
北京,北京三快在线科技有限公司,"['技能培训', '绩效奖金', '岗位晋升', '领导好']",2000人以上,本科,D轮及以上,产品/需求/项目类,"移动互联网,O2O",全职,40.008007,116.48776,五险一金,3427917,"['支付', '大数据', '数据挖掘', 'SPSS']",数据分析师,15k-25k,3-5年
北京,北京易车互联信息技术有限公司,"['技能培训', '节日礼物', '绩效奖金', '岗位晋升']",2000人以上,本科,上市公司,综合职能类,"移动互联网,电子商务",全职,39.93812,116.32732,"上市公司,各种车福利,七险一金,绩效奖金",4066056,['人事'],JTRLZX-HRIS经理（人力资源数据分析师）,15k-30k,5-10年
上海,北京爱论答科技有限公司,"['股票期权', '年底双薪', '通讯津贴', '弹性工作']",150-500人,本科,A轮,产品/需求/项目类,"移动互联网,教育",全职,31.228478,121.440983,"人工智能,硅谷文化,专业团队",3909184,"['资深', 'SPSS', 'sas']",Data Analyst（学习数据分析师）,15K-30K,3-5年
北京,网易（杭州）有限公司,"['节日礼物', '技能培训', '免费班车', '带薪年假']",2000人以上,本科,上市公司,开发/测试/运维类,"电子商务,移动互联网",全职,40.042894,116.275949,"核心业务,老板好,微加班,17薪",3818969,"['总监', '资深', '大数据', 'SPSS', 'sas']",数据分析经理,30k-45k,5-10年
杭州,杭州旦悦科技有限公司,"['专项奖金', '年底双薪', '绩效奖金', '五险一金']",500-2000人,本科,B轮,开发/测试/运维类,教育,全职,30.19274174,120.2028167,8090氛围 公司发展快 行业前景好,3574955,"['数据挖掘', 'SPSS']",数据分析师(BI),5k-8k,1-3年
北京,北京酷划在线网络技术有限公司,"['移动互联网', '发展壮大', '有竞争力薪酬', '战斗力团队']",50-150人,本科,不需要融资,市场/商务/销售类,移动互联网,全职,40.009084,116.355305,"产品好,牛人多,氛围好,合理加班",3347977,"['移动互联网', '广告营销', '数据挖掘', 'SPSS', '用户研究']",数据分析师【要求985/211】,8k-12k,不限
北京,北京光宇在线科技有限责任公司,"['年底双薪', '绩效奖金', '专项奖金', '五险一金']",2000人以上,本科,上市公司,开发/测试/运维类,游戏,全职,116.331398,39.897445,"学习空间大,晋升空间大",4025151,"['数据挖掘', 'SPSS']",数据分析员,8k-15k,1-3年
杭州,杭州财米科技有限公司,"['年底多薪', '岗位晋升', '定期体检', '五险一金']",500-2000人,本科,C轮,市场/商务/销售类,"移动互联网,金融",全职,29.993662,119.993591,弹性工作,3382837,"['数据挖掘', '算法', '业务分析']",数据分析-偏建模（实习生）-杭州-00917,3k-4k,不限
上海,上海大岂网络科技有限公司,[],50-150人,本科,B轮,产品/需求/项目类,移动互联网,全职,31.196247,121.432441,"大数据,B轮,团队氛围好,发展前景大",4020979,['可视化'],数据分析/数据建模,10k-20k,1-3年
上海,上海凯石财富基金销售有限公司,"['技能培训', '年底双薪', '节日礼物', '绩效奖金']",150-500人,本科,不需要融资,产品/需求/项目类,金融,全职,31.23276986,121.49169,"五险一金,带薪病假,通讯补贴,年终奖金",2641172,[],数据分析专员,6k-10k,不限
上海,上海脉豪商务信息咨询有限公司,"['股票期权', '带薪年假', '定期体检', '弹性工作']",150-500人,大专,天使轮,市场/商务/销售类,"移动互联网,企业服务",全职,30.994061,120.993464,"大数据AI,互联网公司,弹性8h,晋升通道",4003905,"['教育', '调研', '大数据', '数据挖掘']",数据分析助理/专员（教育行业）,5k-8k,1年以下
深圳,中电数通科技有限公司,[],150-500人,大专,天使轮,开发/测试/运维类,"移动互联网,信息安全",全职,22.652657,114.11718,"高薪,发展空间大",3555590,"['软件开发', '数据挖掘', '算法']",大数据分析工程师,10K-20K,1-3年
广州,广州活动时文化传媒有限公司,"['年底双薪', '带薪年假', '定期体检', '专项奖金']",50-150人,本科,A轮,产品/需求/项目类,"企业服务,数据服务",全职,23.003163,113.327653,"发展空间大,扁平化管理,平台大",3818560,"['大数据', '数据挖掘']",数据分析师,9k-14k,1-3年
北京,北京字节跳动科技有限公司,"['扁平管理', '弹性工作', '大厨定制三餐', '就近租房补贴']",500-2000人,本科,C轮,产品/需求/项目类,"移动互联网,数据服务",全职,39.971268,39.971268,弹性工作，免费三餐，租房补贴，扁平管理，,3512372,[],资深数据分析师,15k-30k,3-5年
北京,网易（杭州）有限公司,"['节日礼物', '技能培训', '免费班车', '带薪年假']",2000人以上,本科,上市公司,开发/测试/运维类,"电子商务,移动互联网",全职,39.99426,115.99339,"核心团队,18薪,老板好",3153255,"['广告营销', '资深', '数据挖掘', 'SPSS', 'sas']",数据分析师（广告）,15k-28k,3-5年
杭州,杭州旦悦科技有限公司,"['专项奖金', '年底双薪', '绩效奖金', '五险一金']",500-2000人,本科,B轮,产品/需求/项目类,教育,全职,30.19274174,120.2028167,福利人性化，公司扁平化，团队亲和活力,3826419,"['统计', '数据管理']",数据分析专员,4k-5k,1年以下
北京,北京光宇在线科技有限责任公司,"['年底双薪', '绩效奖金', '专项奖金', '五险一金']",2000人以上,本科,上市公司,开发/测试/运维类,游戏,全职,116.331398,39.897445,"晋升空间大,学习空间大",4025148,"['数据挖掘', 'SPSS', '数据管理']",数据分析专员,6k-10k,1-3年
上海,杭州财米科技有限公司,"['年底多薪', '岗位晋升', '定期体检', '五险一金']",500-2000人,本科,C轮,开发/测试/运维类,"移动互联网,金融",全职,31.21310986,121.53590001,学习平台 发展空间,3792595,"['银行', '电商', '广告营销', '数据挖掘']",高级数据分析师-上海-01114,20k-35k,3-5年
上海,上海脉豪商务信息咨询有限公司,"['股票期权', '带薪年假', '定期体检', '弹性工作']",150-500人,本科,天使轮,产品/需求/项目类,"移动互联网,企业服务",全职,30.994061,120.993464,"互联网公司,大数据平台,季度奖金,活力年轻",3167494,"['商业', '业务运营', '大数据', '数据挖掘', 'SPSS']",数据分析师,8k-12k,1-3年
北京,北京直客通科技有限公司,"['技能培训', '绩效奖金', '岗位晋升', '估值过亿']",50-150人,本科,C轮,产品/需求/项目类,"移动互联网,旅游",全职,39.911658,116.482018,"平台有发展,领导好,绩效奖金,商业保险",4032692,"['资深', '高级', '商业', '大数据', 'SPSS']",数据分析师,20k-30k,3-5年
厦门,厦门掌酷信息科技有限公司,"['年底双薪', '绩效奖金', '带薪年假', '定期体检']",150-500人,本科,不需要融资,产品/需求/项目类,"移动互联网,电子商务",全职,24.494323,118.117439,"周末双休,年终双薪,每年调薪,入股分红",4060046,"['金融', '大数据', '数据挖掘']",数据分析师/数据经理,10k-15k,3-5年
北京,清枫（北京）科技有限公司,"['带薪年假', '扁平管理', '五险一金', '弹性工作']",50-150人,本科,A轮,开发/测试/运维类,游戏,全职,39.99671,116.481255,"北大博士,腾讯大牛,电竞大数据,期权激励",4013707,"['游戏', '高级', '大数据', '数据挖掘']",数据分析师,15k-30k,1-3年
上海,上海卫诚企业征信有限公司,"['年底双薪', '带薪年假', '绩效奖金', '弹性工作']",50-150人,硕士,不需要融资,金融类,"金融,移动互联网",全职,31.336804,121.49387,"扁平化管理,弹性工作制,年终奖,办公环境好",3899053,"['征信', '风控', '顾问', '行业研究', 'sas']",行业数据分析研究员,7k-10k,1-3年
北京,北京善义善美科技有限公司,"['岗位晋升', '扁平管理', '个人成长快', '牛人多']",2000人以上,本科,D轮及以上,产品/需求/项目类,O2O,全职,0.0,0.0,地铁周边 福利完善,3495570,"['高级', '大数据', '数据挖掘']",数据分析产品经理,15k-20k,1-3年
广州,广州神灯商务服务有限公司,"['年底双薪', '带薪年假', '午餐补助', '定期体检']",15-50人,大专,未融资,产品/需求/项目类,"电子商务,数据服务",全职,23.14584,113.32587,发展空间大,3203698,"['金融', '电商', '文化娱乐', '大数据', '数据挖掘']",数据分析,6k-12k,1-3年
北京,北京数猎天下科技有限公司,"['年底双薪', '交通补助', '带薪年假', '帅哥多']",15-50人,不限,天使轮,产品/需求/项目类,"数据服务,企业服务",全职,39.987243,116.334661,"13薪,丰富团建,零食下午茶,朝阳行业",3973896,"['项目管理', 'PMO', 'PMP', '产品经理']",项目经理（数据分析）,14k-28k,3-5年
广州,广州零点市场调查有限公司,[],50-150人,本科,A轮,开发/测试/运维类,数据服务,全职,23.131809,113.311289,"晋升快,平台好,周末双休,五险一金",3802722,['建模'],大数据分析师（数据挖掘方向）,8k-10k,1-3年
北京,炫一下（北京）科技有限公司,"['带薪年假', '绩效奖金', '岗位晋升', '管理规范']",500-2000人,本科,D轮及以上,产品/需求/项目类,"移动互联网,文化娱乐",全职,39.999364,116.48919426,业务发展快，成长空间大,3936507,"['移动互联网', '高级', '专员', '商业', '业务运营']",数据分析,10k-20k,3-5年
北京,北京字节跳动科技有限公司,"['扁平管理', '弹性工作', '大厨定制三餐', '就近租房补贴']",500-2000人,本科,C轮,产品/需求/项目类,"移动互联网,数据服务",全职,39.971268,39.971268,六险一金，弹性工作，免费三餐，餐补，租房补贴，带薪休假，休闲下午茶，扁平管理，健身瑜伽，过亿用户，职业大牛，晋升空间，团队氛围好,3516085,[],运营平台高级数据分析师,15k-30k,3-5年
北京,网易（杭州）有限公司,"['节日礼物', '技能培训', '免费班车', '带薪年假']",2000人以上,本科,上市公司,产品/需求/项目类,"电子商务,移动互联网",全职,40.042894,116.275949,"发展空间大,薪酬福利好,创新团队,互联网金融",3288290,"['理财', '高级', '数据挖掘', 'SPSS']",数据分析师,15k-25k,3-5年
上海,杭州财米科技有限公司,"['年底多薪', '岗位晋升', '定期体检', '五险一金']",500-2000人,硕士,C轮,产品/需求/项目类,"移动互联网,金融",全职,31.17207,121.51393,弹性工作,3882456,[],数据分析师-上海浦东-01151,8k-10k,1-3年
上海,上海脉豪商务信息咨询有限公司,"['股票期权', '带薪年假', '定期体检', '弹性工作']",150-500人,大专,天使轮,产品/需求/项目类,"移动互联网,企业服务",全职,30.994061,120.993464,"互联网公司,大数据平台,弹性8h,团队大牛多",3947216,"['专员', '大数据', '数据挖掘']",数据分析助理,6k-8k,不限
北京,北京直客通科技有限公司,"['技能培训', '绩效奖金', '岗位晋升', '估值过亿']",50-150人,本科,C轮,产品/需求/项目类,"移动互联网,旅游",全职,39.911658,116.482018,"发展空间大,平台好,创业公司,绩效奖金",4045813,"['资深', '高级', '商业', '业务运营']",数据分析经理/总监,20k-35k,5-10年
上海,上海卫诚企业征信有限公司,"['年底双薪', '带薪年假', '绩效奖金', '弹性工作']",50-150人,本科,不需要融资,产品/需求/项目类,"金融,移动互联网",全职,31.336804,121.49387,"扁平化管理,弹性工作制,年终奖,办公环境好",4104483,"['银行', '大数据', '数据挖掘', '建模']",数据分析师,6k-10k,1-3年
北京,北京善义善美科技有限公司,"['岗位晋升', '扁平管理', '个人成长快', '牛人多']",2000人以上,本科,D轮及以上,产品/需求/项目类,O2O,全职,40.04741,116.431819,高薪、有发展前景,4030986,"['大数据', '数据挖掘']",商业数据分析经理,15k-30k,3-5年
北京,北京数猎天下科技有限公司,"['年底双薪', '交通补助', '带薪年假', '帅哥多']",15-50人,本科,天使轮,产品/需求/项目类,"数据服务,企业服务",全职,39.987243,116.334661,"年底13薪,交通补助,免费晚餐,零食水果",4077023,"['资深', '高级', '可视化', '大数据', '数据挖掘']",数据分析师,22k-35k,3-5年
广州,广州零点市场调查有限公司,[],50-150人,本科,A轮,产品/需求/项目类,数据服务,全职,23.131809,113.311289,"五险一金,双休,节日福利,年度体检",3014121,"['大数据', '数据挖掘', '建模', 'SPSS']",数据分析员,4k-5k,不限
杭州,杭州九言科技股份有限公司,"['节日礼物', '股票期权', '年度旅游', '岗位晋升']",150-500人,本科,B轮,金融,"广告营销,移动互联网",全职,30.27303013,120.12500956,打造7000w用户的美好体验～,1670002,[],资深数据分析师（分析方向）,15k-25k,3-5年
深圳,爱问医联科技（深圳）有限公司,"['股票期权', '带薪年假', '午餐补助', '专项奖金']",50-150人,本科,A轮,产品/需求/项目类,"医疗健康,移动互联网",全职,22.53343,113.946293,"爱问医联,微博平台,五险一金,互联网医疗",3900158,"['金融', '数据挖掘', 'SPSS']",数据分析师,8k-15k,1-3年
广州,广州多融信息科技有限公司,"['年终分红', '绩效奖金', '领导好', '扁平管理']",15-50人,本科,未融资,产品/需求/项目类,金融,全职,23.119559,113.326686,"五险一金,平台发展,扁平化管理,免费午餐",3570483,"['金融', '大数据', '数据挖掘', '策略', 'SPSS']",数据分析师,10k-20k,1-3年
广州,广州艾力彼管理顾问有限公司,"['""""']",15-50人,本科,不需要融资,开发/测试/运维类,"医疗健康,数据服务",全职,23.089458,113.276398,"数据分析,数据挖掘,SAS,分析软件",4023379,"['金融', '医疗健康', '大数据', '数据挖掘', 'SPSS']",数据分析师,6k-10k,1-3年
深圳,武汉佰钧成技术有限责任公司,"['带薪年假', '计算机软件', '管理规范', '定期体检']",2000人以上,本科,不需要融资,产品/需求/项目类,移动互联网,全职,0.0,0.0,"腾讯平台,弹性工作,六险一金",4057874,"['专员', '业务运营', '大数据', '统计', 'SPSS']",数据分析员,7k-8k,1-3年
广州,广州棒谷科技股份有限公司,"['项目奖金', '绩效奖金', '年终奖', '五险一金']",2000人以上,本科,不需要融资,市场/商务/销售类,电子商务,全职,23.175202,113.271506,"带薪年假,大型年会,节日福利,晋升空间大",3618222,"['文案', '品牌', '创意', '推广']",数据分析（广告投放）,4k-8k,不限
北京,北京字节跳动科技有限公司,"['扁平管理', '弹性工作', '大厨定制三餐', '就近租房补贴']",500-2000人,本科,C轮,产品/需求/项目类,"移动互联网,数据服务",全职,39.971268,39.971268,六险一金，弹性工作，免费三餐，租房补贴，带薪休假，休闲下午茶，扁平管理，健身瑜伽，过亿用户，职业大牛，晋升空间，团队氛围好，优厚薪资,3990752,[],数据分析师,15k-30k,1-3年
杭州,杭州财米科技有限公司,"['年底多薪', '岗位晋升', '定期体检', '五险一金']",500-2000人,本科,C轮,开发/测试/运维类,"移动互联网,金融",全职,30.279227,120.12092,"弹性工作,期权激励,六险一金,带薪年假",2615738,"['电商', '大数据']",高级数据分析师-杭州-00065,15k-30k,1-3年
北京,北京善义善美科技有限公司,"['岗位晋升', '扁平管理', '个人成长快', '牛人多']",2000人以上,本科,D轮及以上,市场与销售,O2O,全职,40.041928,116.440967,D轮融资 超nice团队 弹性工作,1233908,[],广告投放数据分析师,12k-24k,3-5年
杭州,杭州九言科技股份有限公司,"['节日礼物', '股票期权', '年度旅游', '岗位晋升']",150-500人,本科,B轮,产品/需求/项目类,"广告营销,移动互联网",全职,30.27303,120.12501,"五险一金,双休,年轻的团队,弹性时间",3068960,"['总监', '数据挖掘', 'SPSS', 'sas']",数据分析专家,20k-35k,5-10年
深圳,爱问医联科技（深圳）有限公司,"['股票期权', '带薪年假', '午餐补助', '专项奖金']",50-150人,本科,A轮,产品/需求/项目类,"医疗健康,移动互联网",全职,22.53343,113.946293,"爱问医联,微博平台,五险一金,互联网医疗",3814457,"['金融', '数据挖掘', 'SPSS', 'sas']",数据分析师,12k-15k,3-5年
广州,广州棒谷科技股份有限公司,"['项目奖金', '绩效奖金', '年终奖', '五险一金']",2000人以上,本科,不需要融资,运营/编辑/客服,电子商务,全职,23.175202,113.271506,"晋升空间大,绩效奖金多,带薪年假,五险一金",3864587,"['电商', '运营', '用户', '品类']",数据分析专员,5k-8k,不限
广州,广州坚和网络科技有限公司,"['年底双薪', '弹性上班时间', '五天工作制', '领导好']",150-500人,本科,C轮,技术,移动互联网,全职,23.1473197,113.34638047,福利待遇高 发展前景好,2178356,['数据挖掘'],数据分析工程师,5k-10k,3-5年
上海,携程计算机技术（上海）有限公司,"['绩效奖金', '股票期权', '五险一金', '交通补助']",2000人以上,本科,上市公司,产品/需求/项目类,"移动互联网,旅游",全职,31.22129985,121.35359001,健身房 海外旅游福利 带薪年假 年终奖,3826987,"['资深', '高级', '大数据', '业务运营', '数据挖掘']",数据分析,15k-25k,3-5年
杭州,杭州哲信信息技术有限公司,"['节日礼物', '带薪年假', '绩效奖金', '年度旅游']",150-500人,本科,上市公司,开发/测试/运维类,移动互联网,全职,30.29961,120.10742,"五险一金,医疗保险,定期体检,节日福利",3934818,"['征信', '专家', '数据挖掘']",大数据分析,6k-12k,1-3年
深圳,深圳马可孛罗科技有限公司,"['股票期权', '带薪年假', '绩效奖金', '年度旅游']",150-500人,本科,A轮,运营/编辑/客服,旅游,全职,22.537171,113.955996,大牛多 福利好 弹性管理,3147627,"['资深', '高级', '数据挖掘', 'SPSS']",商业数据分析师,10k-20k,3-5年
广州,广州智干电子商务科技有限公司,"['绩效奖金', '定期体检', '带薪年假', '节日礼物']",150-500人,本科,未融资,开发/测试/运维类,电子商务,全职,23.103144,113.342645,"五险一金,法定假期,定期体检,员工旅游",3869615,"['电商', '大数据', '数据挖掘', 'SPSS']",数据分析工程师,20k-25k,3-5年
北京,北京智云奇点科技有限公司,"['节日礼物', '技能培训', '股票期权', '年度旅游']",50-150人,本科,B轮,产品,硬件,全职,39.985755,116.303537,IoT云计算业界最优秀技术团队,1542495,[],高级产品经理（大数据分析方向）,25k-35k,3-5年
成都,成都东方闻道科技发展有限公司,"['技能培训', '节日礼物', '带薪年假', '绩效奖金']",150-500人,本科,不需要融资,产品/需求/项目类,"移动互联网,教育",全职,30.540608,104.076172,"下班早,加班少,福利好,美女多",4091108,"['大数据', '数据挖掘']",数据分析师,6k-10k,3-5年
深圳,深圳市紫川软件有限公司,"['节日礼物', '年底双薪', '绩效奖金', '岗位晋升']",500-2000人,本科,不需要融资,开发/测试/运维类,"电子商务,金融",全职,0.0,0.0,周末双休 五险一金 员工旅游,4059267,"['大数据', '数据挖掘', '建模']",数据分析师,9k-14k,3-5年
成都,成都五弄云科技有限公司,"['专项奖金', '年终分红']",15-50人,本科,天使轮,开发/测试/运维类,移动互联网,全职,30.668762,104.104246,"初创型企业,五险一金,周末双休",3984121,"['大数据', '数据挖掘']",数据分析师,6k-10k,3-5年
北京,北京字节跳动科技有限公司,"['扁平管理', '弹性工作', '大厨定制三餐', '就近租房补贴']",500-2000人,本科,C轮,产品/需求/项目类,"移动互联网,数据服务",全职,39.971268,39.971268,六险一金，弹性工作，免费三餐，租房补贴，带薪休假，休闲下午茶，扁平管理，健身瑜伽，过亿用户，职业大牛，晋升空间，团队氛围好，优厚薪资,4030015,[],商业化数据分析师-目标管控方向,15k-30k,3-5年
北京,北京善义善美科技有限公司,"['岗位晋升', '扁平管理', '个人成长快', '牛人多']",2000人以上,本科,D轮及以上,运营,O2O,全职,40.04284308,116.44040535,D轮融资 超nice团队 弹性工作,2478351,[],广告投放数据分析师,12k-24k,1-3年
杭州,杭州九言科技股份有限公司,"['节日礼物', '股票期权', '年度旅游', '岗位晋升']",150-500人,本科,B轮,产品/需求/项目类,"广告营销,移动互联网",全职,30.27303,120.12501,"发展前景好,成长迅速",2850740,['大数据'],数据分析师（分析方向）,10k-20k,1-3年
深圳,爱问医联科技（深圳）有限公司,"['股票期权', '带薪年假', '午餐补助', '专项奖金']",50-150人,本科,A轮,产品/需求/项目类,"医疗健康,移动互联网",全职,22.53343,113.946293,"爱问医联,互联网医疗,微博平台,五险一金",3988864,"['金融', '数据挖掘', 'SPSS']",运营数据分析师,10k-15k,1-3年
广州,广州棒谷科技股份有限公司,"['项目奖金', '绩效奖金', '年终奖', '五险一金']",2000人以上,大专,不需要融资,运营/编辑/客服,电子商务,全职,23.175202,113.271506,"晋升空间大,绩效奖金多,优秀团队,带薪年假",4058948,"['电商', '物流', '资深', '网站']",数据运营/数据分析师,7k-12k,1-3年
深圳,深圳马可孛罗科技有限公司,"['股票期权', '带薪年假', '绩效奖金', '年度旅游']",150-500人,本科,A轮,产品/需求/项目类,旅游,全职,0.0,0.0,"产品全球化,文化逗比,牛人多,福利好",4108390,"['金融', '资深', '大数据', '数据挖掘']",高级数据分析产品经理,20k-30k,3-5年
成都,成都东方闻道科技发展有限公司,"['技能培训', '节日礼物', '带薪年假', '绩效奖金']",150-500人,本科,不需要融资,产品/需求/项目类,"移动互联网,教育",全职,30.540608,104.076172,"下班早,领导好,福利棒,平台好",4059979,"['运营', '统计']",信息数据分析专员,3k-6k,不限
南京,通联数据股份公司,"['五险一金', '通讯津贴', '带薪年假', '节日礼物']",150-500人,本科,不需要融资,产品/需求/项目类,金融,全职,31.994276,118.99344,"团队氛围好,福利待遇好",2928503,"['金融', '大数据', '统计', '数据管理']",行业数据分析师（数据规划）-南京,5k-10k,不限
上海,上海森亿医疗科技有限公司,"['年底双薪', '带薪年假', '交通补助', '扁平管理']",50-150人,硕士,A轮,产品/需求/项目类,"数据服务,医疗健康",全职,0.0,0.0,"领导好,薪资福利好,工作氛围好,氛围好",3981299,"['高级', '大数据', '统计', 'SPSS']",临床数据分析师,10k-20k,不限
常州,江苏永安行低碳科技有限公司,[],2000人以上,本科,上市公司,开发/测试/运维类,"移动互联网,O2O",全职,31.83678,119.952052,"五险一金,上市公司",3783721,"['数据挖掘', '大数据', 'SQL']",数据分析工程师,8k-12k,不限
上海,上海元聚网络科技有限公司,[],150-500人,不限,B轮,开发/测试/运维类,移动互联网,全职,31.169253,121.387755,"五险一金,绩效奖金,员工旅游,定期体检",4028204,['数据挖掘'],大数据分析工程师,10k-20k,1-3年
上海,上海水象金融信息服务有限公司,[],150-500人,本科,A轮,开发/测试/运维类,"电子商务,金融",全职,31.20131,121.315746,"5a商务楼,扁平化管理,六险一金,团队建设",3905612,"['金融', '中级', '大数据']",数据分析专员,6k-12k,1-3年
西安,西安亚购信息科技有限公司,"['交通补助', '弹性工作', '帅哥多', '领导好']",50-150人,大专,A轮,产品,"电子商务,O2O",全职,34.190449,108.877037,十三薪；五险一金；出国机会；弹性工作,2353221,[],数据分析员,4k-8k,1-3年
天津,天津华永无线科技有限公司,"['节日礼物', '技能培训', '免费班车', '岗位晋升']",150-500人,大专,A轮,产品/需求/项目类,移动互联网,全职,39.078437,117.097912,"五险一金,周末双休",4016164,"['大数据', 'SPSS', 'sas']",数据分析师,4k-8k,1-3年
上海,憨分数据科技（上海）有限公司,"['年终奖', '午餐补助', '弹性工作', '美女多']",15-50人,本科,未融资,开发/测试/运维类,"移动互联网,金融",全职,31.309215,121.517992,"待遇优厚,晋升速度快,专业度高,技能培训",4073161,"['数据挖掘', '大数据']",数据分析师,8k-13k,1-3年
北京,北京字节跳动科技有限公司,"['扁平管理', '弹性工作', '大厨定制三餐', '就近租房补贴']",500-2000人,本科,C轮,产品/需求/项目类,"移动互联网,数据服务",全职,39.971268,39.971268,六险一金，弹性工作，免费三餐，租房补贴，扁平管理，职业大牛，晋升空间，团队氛围好,4015495,[],商业化数据分析师,20k-40k,3-5年
深圳,爱问医联科技（深圳）有限公司,"['股票期权', '带薪年假', '午餐补助', '专项奖金']",50-150人,本科,A轮,产品/需求/项目类,"医疗健康,移动互联网",全职,22.53343,113.946293,"微博平台,互联网医疗,五险一金,爱问医联",3814547,"['金融', '数据挖掘', 'SPSS', 'sas']",高级数据分析师,12k-15k,3-5年
上海,通联数据股份公司,"['五险一金', '通讯津贴', '带薪年假', '节日礼物']",150-500人,本科,不需要融资,技术,金融,全职,31.247976,121.486115,有竞争力的薪酬福利,1607679,[],大数据分析工程师,15k-30k,不限
北京,上海森亿医疗科技有限公司,"['年底双薪', '带薪年假', '交通补助', '扁平管理']",50-150人,硕士,A轮,产品/需求/项目类,"数据服务,医疗健康",全职,0.0,0.0,"领导好,薪资福利好,工作氛围好,发展好",3981298,"['医疗健康', '高级', '大数据', '统计', 'SPSS', 'sas']",临床数据分析师,10k-20k,不限
上海,上海水象金融信息服务有限公司,[],150-500人,本科,A轮,产品/需求/项目类,"电子商务,金融",全职,31.20131,121.315746,"六险一金,员工旅游,带薪年假,年终奖金",2944738,"['银行', '保险', 'SPSS', 'sas']",高级数据分析师,15k-20k,3-5年
广州,广州文讯信息科技有限公司,"['专项奖金', '绩效奖金', '带薪年假', '通讯津贴']",50-150人,大专,未融资,产品/需求/项目类,"移动互联网,信息安全",全职,23.125232,113.321965,"专业培训,弹性工作,五险一金,补充医疗保",3436553,"['专员', 'SPSS', '数据管理']",数据分析员,4k-6k,1年以下
上海,上海易往信息技术有限公司,"['技能培训', '节日礼物', '年底双薪', '带薪年假']",150-500人,本科,C轮,开发/测试/运维类,移动互联网,全职,31.164412,121.404359,数据分析,3796984,"['人工智能', '数据挖掘']",大数据分析师,15k-25k,3-5年
北京,深圳天宏迅联科技发展有限公司,"['股票期权', '专项奖金', '带薪年假', '绩效奖金']",50-150人,本科,不需要融资,开发/测试/运维类,"移动互联网,电子商务",全职,0.0,0.0,"海量数据,人工智能,数字经理,产业互联网",4019863,"['资深', '高级', '数据挖掘', '机器学习', '人工智能']",大数据分析师,15k-30k,5-10年
长沙,北京五八到家信息技术有限公司,"['节日礼物', '技能培训', '股票期权', '免费班车']",2000人以上,大专,A轮,运营/编辑/客服,"O2O,生活服务",全职,28.228625,112.879339,六险一金，晋升空间大，弹性工作制,3972272,"['专员', '助理', '大数据']",策略运营/数据分析,6k-8k,1-3年
北京,北京爱声声科技有限公司,"['移动互联网', '五险一金', '扁平管理', '领导好']",50-150人,本科,B轮,运营/编辑/客服,移动互联网,全职,39.99426,115.99339,互联网前沿,4056939,"['数据挖掘', 'SPSS']",数据分析师,15k-20k,3-5年
杭州,杭州玛瑙湾科技有限公司,"['股票期权', '带薪年假', '岗位晋升', '管理规范']",50-150人,硕士,不需要融资,金融类,"移动互联网,金融",全职,30.27004,120.09875,"双休,五险一金,15薪,领导好",4086451,"['金融', '建模', '数据挖掘', 'SPSS']",风控数据分析师,6k-12k,1-3年
北京,北京粉笔未来科技有限公司,"['股票期权', '年底双薪', '五险一金', '带薪年假']",500-2000人,本科,D轮及以上,技术,"移动互联网,教育",全职,39.992592,116.4745,技术氛围浓，薪资福利好,1271423,"['大数据', '数据挖掘', '建模', '数据开发']",数据分析工程师,15k-30k,1-3年
北京,凡普金科企业发展（上海）有限公司,"['年底双薪', '节日礼物', '技能培训', '带薪年假']",2000人以上,本科,不需要融资,综合职能类,金融,全职,39.9215,116.433078,"六险一金,快速晋升,弹性工作,年底奖金",4119714,"['金融', '薪酬福利', '运营']",数据分析（HR）,15k-25k,3-5年
北京,链家网（北京）科技有限公司,"['股票期权', '带薪年假', '绩效奖金', '扁平管理']",2000人以上,本科,C轮,运营/编辑/客服,"移动互联网,O2O",全职,40.04018018,116.30561083,免费三餐 优秀团队 大平台,3834805,"['高级', '专员', '运营', 'sas']",数据分析与行业分析主管,13k-25k,3-5年
北京,北京车之家信息技术有限公司,"['技能培训', '节日礼物', '带薪年假', '绩效奖金']",2000人以上,本科,上市公司,开发/测试/运维类,"移动互联网,文化娱乐",全职,39.97947273,116.31198942,上市公司，福利好，待遇好。,4041857,"['大数据', '数据挖掘']",数据分析师（数据BP）,25k-35k,3-5年
南京,通联数据股份公司,"['五险一金', '通讯津贴', '带薪年假', '节日礼物']",150-500人,本科,不需要融资,产品/需求/项目类,金融,全职,31.994276,118.99344,"团队氛围好,福利待遇好",2666997,[],行业数据分析师（财务数据方向）,5k-10k,不限
北京,上海水象金融信息服务有限公司,[],150-500人,本科,A轮,产品/需求/项目类,"电子商务,金融",全职,39.823085,116.294938,"年底双薪,美味下午茶,带薪年假,交通补助",3744079,['建模'],数据分析师,15k-25k,3-5年
长沙,北京五八到家信息技术有限公司,"['节日礼物', '技能培训', '股票期权', '免费班车']",2000人以上,大专,A轮,市场/商务/销售类,"O2O,生活服务",全职,28.228625,112.879339,高薪高福利，弹性工作制，晋升空间大,4015171,"['社会化营销', '市场分析']",市场调研/策略运营/数据分析,6k-10k,3-5年
北京,北京爱声声科技有限公司,"['移动互联网', '五险一金', '扁平管理', '领导好']",50-150人,本科,B轮,产品/需求/项目类,移动互联网,全职,39.99426,115.99339,"五险一金,地铁周边,免费中晚餐,年底双薪",4103620,"['产品经理', '大数据', '数据挖掘']",产品运营/数据分析,10k-20k,1-3年
北京,北京字节跳动科技有限公司,"['扁平管理', '弹性工作', '大厨定制三餐', '就近租房补贴']",500-2000人,本科,C轮,产品/需求/项目类,"移动互联网,数据服务",全职,39.977067,39.977067,免费三餐，租房补贴，休闲下午茶，职业大牛，团队氛围好,3915640,[],数据分析师（国际化运营）,15k-30k,3-5年
北京,北京车之家信息技术有限公司,"['技能培训', '节日礼物', '带薪年假', '绩效奖金']",2000人以上,本科,上市公司,开发/测试/运维类,"移动互联网,文化娱乐",全职,39.97947273,116.31198942,风控反作弊团队，学霸多，能力强,3623530,"['高级', '数据挖掘', 'SQL', 'SPSS']",数据分析师（风控&amp;反作弊）,25k-35k,3-5年
广州,广州福利汇网络科技有限公司,[],50-150人,本科,A轮,产品/需求/项目类,移动互联网,全职,23.115529,113.331592,"风控,数据分析,SQL,SPSS",4023222,"['风控', 'SPSS']",数据分析师,8k-15k,1-3年
深圳,深圳市幸福西饼食品有限公司,"['绩效奖金', '带薪年假', '下午茶蛋糕', '季度团建']",500-2000人,本科,B轮,产品/需求/项目类,"移动互联网,O2O",全职,22.539456,113.954518,"周末双休,弹性工作,季度团建,项目奖励",4099483,"['大数据', '数据挖掘', 'SPSS']",数据分析,8k-15k,1-3年
苏州,同程网络科技股份有限公司,"['绩效奖金', '股票期权', '年底双薪', '五险一金']",2000人以上,本科,D轮及以上,产品/需求/项目类,"旅游,电子商务",全职,31.251461,120.730143,扁平管理 发展潜力大,3727105,"['资深', '大数据', '数据挖掘', 'SPSS']",数据分析师,10k-20k,1-3年
上海,上海裸心社企业管理咨询有限公司,[],150-500人,本科,B轮,开发/测试/运维类,"企业服务,移动互联网",全职,31.202824,121.402257,"业务发展快,带薪年假,商业保险,年终奖金",3993111,"['数据挖掘', 'SQL', 'SPSS', 'python']",高级数据分析工程师,15k-25k,3-5年
上海,深圳平安综合金融服务有限公司,[],2000人以上,本科,上市公司,产品/需求/项目类,"金融,数据服务",全职,31.238157,121.666906,"平台,绩效奖金,免费体检,班车",3915114,"['金融', '教育', '媒体', '大数据', '信贷']",数据分析岗（贷款业务事业部）,8k-15k,1-3年
上海,我查查信息技术（上海）有限公司,"['技能培训', '年底双薪', '绩效奖金', '岗位晋升']",150-500人,本科,不需要融资,开发/测试/运维类,移动互联网,全职,31.20839,121.6266,"环境氛围好,年底多薪,亿级数据",3771068,['数据挖掘'],数据分析工程师,10k-15k,3-5年
北京,优舫（北京）信息科技有限公司,"['绩效奖金', '通讯津贴', '带薪年假', '交通补助']",2000人以上,本科,D轮及以上,产品/需求/项目类,"电子商务,移动互联网",全职,39.991647,116.473437,"团队好,领导好,福利好,平台好",3303733,"['资深', '大数据', '数据挖掘', '建模']",高级数据分析师,15k-20k,3-5年
北京,北京创世漫道科技有限公司,"['带薪年假', '绩效奖金', '岗位晋升', '定期体检']",500-2000人,本科,上市公司,运营/编辑/客服,"移动互联网,电子商务",全职,39.960808,116.302461,上市公司,4077998,['数据管理'],数据分析专员,5k-7k,不限
北京,医众互联（北京）医疗科技有限公司,"['节日礼物', '专项奖金', '带薪年假', '绩效奖金']",50-150人,硕士,不需要融资,产品/需求/项目类,"移动互联网,医疗健康",全职,39.91506,116.4607,"晋升空间大,办公环境好,离地铁近,优秀领导者",3794467,"['大数据', 'BI', '可视化', '专员', 'sas']",临床数据分析员,8k-12k,1-3年
上海,通联数据股份公司,"['五险一金', '通讯津贴', '带薪年假', '节日礼物']",150-500人,本科,不需要融资,开发/测试/运维类,金融,全职,31.248034,121.486394,"福利待遇好,团队氛围好",2738731,"['金融', '大数据']",数据分析工程师,20k-40k,不限
上海,上海水象金融信息服务有限公司,[],150-500人,本科,A轮,开发/测试/运维类,"电子商务,金融",全职,31.20131,121.315746,"高级写字楼,扁平化管理",3905580,"['资深', '大数据', '数据挖掘', '数据管理']",数据分析主管,10k-20k,3-5年
北京,北京字节跳动科技有限公司,"['扁平管理', '弹性工作', '大厨定制三餐', '就近租房补贴']",500-2000人,本科,C轮,产品/需求/项目类,"移动互联网,数据服务",全职,39.977067,39.977067,免费三餐，租房补贴，休闲下午茶，职业大牛，团队氛围好,3915639,[],数据分析师（国际化产品）,15k-30k,3-5年
上海,上海裸心社企业管理咨询有限公司,[],150-500人,本科,B轮,开发/测试/运维类,"企业服务,移动互联网",全职,31.202824,121.402257,"业务发展快,弹性工作,年轻化团队,商业保险",4079569,"['数据挖掘', 'SQL', 'ETL', 'python']",数据分析工程师,10k-20k,1-3年
上海,深圳平安综合金融服务有限公司,[],2000人以上,本科,上市公司,金融类,"金融,数据服务",全职,31.239736,121.502257,"年终奖金,医疗服务,过节福利,年金计划",3435355,"['金融', '教育', '建模', '风控', '合规稽查']",大数据分析稽核专员（上海，投资审计组）,11k-22k,3-5年
深圳,武汉佰钧成技术有限责任公司,"['带薪年假', '计算机软件', '管理规范', '定期体检']",2000人以上,本科,不需要融资,开发/测试/运维类,移动互联网,全职,22.674035,114.064492,"大格局岗位,薪资丰厚",3912934,"['大数据', '数据挖掘']",数据分析专家,30k-60k,10年以上
深圳,中腾信金融信息服务（上海）有限公司,"['节日礼物', '年底多薪', '绩效奖金', '岗位晋升']",2000人以上,本科,不需要融资,产品/需求/项目类,金融,全职,22.540772,113.953243,"大平台,奖金丰厚",3925073,[],数据分析师（风险控制方向）,8k-15k,1-3年
北京,北京炫我科技有限公司,"['带薪年假', '绩效奖金', '岗位晋升', '年度旅游']",50-150人,本科,A轮,产品/需求/项目类,"移动互联网,数据服务",全职,40.055345,116.313814,"五险一金,员工旅游,周末双休,节日福利",3866778,"['数据挖掘', '统计', 'SPSS', 'R']",数据分析师,10k-15k,1-3年
北京,北京金山软件有限公司,"['年底双薪', '节日礼物', '技能培训', '绩效奖金']",2000人以上,本科,上市公司,开发/测试/运维类,移动互联网,全职,40.036741,116.32274,"团队技术氛,围好福利优,团队旅行,健身房",3307051,"['搜索', '机器学习', '深度学习', '推荐', '数据挖掘']",高级数据分析师,18k-35k,3-5年
上海,上海康成电子商务有限公司,"['弹性工作', '扁平管理', '节日礼物', '绩效奖金']",50-150人,本科,未融资,产品/需求/项目类,"金融,电子商务",全职,31.229108,121.510217,"五险一金,节日福利,带薪年假,发展前景",3471490,"['金融', '脚本', '测试', '自动化']",大数据分析工程师,8k-15k,1-3年
北京,中国民生银行股份有限公司信用卡中心,"['年底双薪', '绩效奖金', '带薪年假', '交通补助']",2000人以上,本科,B轮,金融类,金融,全职,0.0,0.0,"平台,福利,金融机构",4021993,['风控'],授信评审部数据分析岗,10k-20k,1-3年
北京,北京清帆远航网络技术有限公司,"['岗位晋升', '定期体检', '五险一金', '绩效奖金']",15-50人,本科,A轮,产品/需求/项目类,"移动互联网,教育",全职,40.047683,116.292868,"年13薪,期权激励,高福利,优秀团队",4094431,"['大数据', 'BI', '可视化', '专员', '商业']",数据分析师,10k-15k,1-3年
上海,上海证大喜马拉雅网络科技有限公司,"['年底双薪', '股票期权', '带薪年假', '绩效奖金']",500-2000人,本科,D轮及以上,市场/商务/销售类,"移动互联网,文化娱乐",全职,31.204349,121.594409,"奖金丰厚,氛围好,弹性工作",4103958,"['统计', '数据管理', '售后']",销售支持主管（数据分析）,6k-8k,1-3年
上海,上海二三四五网络科技有限公司,"['鼓励内部创业', '互联网百强', '亿万用户', '提倡男女恋爱']",500-2000人,本科,上市公司,产品/需求/项目类,"数据服务,移动互联网",全职,31.19897,121.60363,"上市平台,金融牌照,亿级用户,高盈利",3825198,"['金融', '资深']",数据分析经理（产品运营方向）,15k-25k,3-5年
北京,北京易观网络信息咨询有限公司,"['专项奖金', '午餐补助', '技能培训', '扁平管理']",150-500人,本科,B轮,产品/需求/项目类,"移动互联网,数据服务",全职,39.98497007,116.46734,互联网大数据领先品牌 弹性工作 六险一金,3855098,"['资深', '高级', '大数据', 'R']",数据分析总监,25k-50k,5-10年
北京,北京字节跳动科技有限公司,"['扁平管理', '弹性工作', '大厨定制三餐', '就近租房补贴']",500-2000人,本科,C轮,产品/需求/项目类,"移动互联网,数据服务",全职,39.977067,39.977067,免费三餐，租房补贴，休闲下午茶，职业大牛，团队氛围好,3915641,[],数据分析师（站内活动方向）,15k-30k,3-5年
上海,深圳平安综合金融服务有限公司,[],2000人以上,本科,上市公司,金融类,"金融,数据服务",全职,31.239736,121.502257,"年终奖金,医疗服务,过节福利,年金计划",3435316,"['金融', '建模', '风控', '合规稽查']",大数据分析稽核经理（上海，投资审计组）,20k-40k,5-10年
深圳,中腾信金融信息服务（上海）有限公司,"['节日礼物', '年底多薪', '绩效奖金', '岗位晋升']",2000人以上,本科,不需要融资,金融类,金融,全职,22.540772,113.953243,"中信系,大平台,奖金丰厚",3333295,"['金融', '风控', 'SPSS', 'sas']",消费金融数据分析师,8k-13k,1-3年
北京,北京金山软件有限公司,"['年底双薪', '节日礼物', '技能培训', '绩效奖金']",2000人以上,本科,上市公司,设计,移动互联网,全职,40.03674105,116.32274,待遇优厚 发展空间大 下午茶 健身房,2048741,[],数据分析师,10k-20k,3-5年
北京,北京清帆远航网络技术有限公司,"['岗位晋升', '定期体检', '五险一金', '绩效奖金']",15-50人,本科,A轮,开发/测试/运维类,"移动互联网,教育",全职,40.047683,116.292868,"年13薪,期权激励,优秀团队,高福利",4092656,"['中级', '可视化', '大数据', '数据挖掘', 'SPSS']",数据分析师,10k-15k,1-3年
上海,上海二三四五网络科技有限公司,"['鼓励内部创业', '互联网百强', '亿万用户', '提倡男女恋爱']",500-2000人,本科,上市公司,产品/需求/项目类,"数据服务,移动互联网",全职,31.198981,121.603348,"A股上市,六险一金,加薪灵活,年终奖金",3695685,"['资深', '专员', 'SPSS']",高级数据分析师(推广渠道质量分析),15k-30k,3-5年
北京,北京小川在线网络技术有限公司,"['技能培训', '连续创业团队', '年度旅游', '扁平管理']",50-150人,本科,B轮,开发/测试/运维类,移动互联网,全职,39.980092,116.368056,"成长空间大,高薪高股,大牛云集,不打卡",3948199,"['游戏', '社交', '文化娱乐', '运营', 'php', 'python']",数据分析专家,50k-100k,5-10年
深圳,深圳市泽宝电子商务股份有限公司,"['绩效奖金', '年终分红', '股票期权', '五险一金']",500-2000人,本科,D轮及以上,开发/测试/运维类,电子商务,全职,22.603711,114.059443,老板nice 工作环境佳 HR贤良淑德,2619947,"['深度学习', '大数据', '数据挖掘']",数据分析师,15k-25k,3-5年
北京,北京享阅教育科技有限公司,"['股票期权', '午餐补助', '节日礼物', '帅哥多']",50-150人,硕士,A轮,开发/测试/运维类,"教育,移动互联网",全职,39.983452,116.30982,"弹性工作,公司氛围好,领导好,发展空间大",4012723,"['数据挖掘', 'SPSS']",BI数据分析师,10k-20k,3-5年
上海,上海尚诚消费金融股份有限公司,[],150-500人,不限,未融资,开发/测试/运维类,"金融,移动互联网",全职,31.222122,121.350639,"前景广,福利好",4108196,"['大数据', '数据挖掘']",数据分析师,15k-30k,不限
重庆,重庆猪八戒网络有限公司,"['岗位晋升', '定期体检', '五险一金', '带薪年假']",2000人以上,本科,C轮,开发/测试/运维类,"企业服务,硬件",全职,29.623512,106.502676,"独角兽企业,技术大牛",4023308,"['资深', '高级', '大数据', '数据挖掘']",数据分析师,12k-18k,5-10年
北京,北京新东方迅程网络科技有限公司,"['年度旅游', '定期体检', '免费健身', '交通补助']",500-2000人,本科,不需要融资,开发/测试/运维类,"移动互联网,教育",全职,39.99426,115.99339,"在线教育,腾讯入资,新东方在线",3971757,"['数据挖掘', 'SPSS']",数据分析师,20k-35k,3-5年
北京,新浪网技术（中国）有限公司,"['免费班车', '岗位晋升', '五险一金', '定期体检']",2000人以上,本科,上市公司,开发/测试/运维类,文化娱乐,全职,40.041543,116.276316,"大公司,班车,健身房,食堂",3540356,"['数据挖掘', '行业研究', '市场分析', 'SPSS', '用户研究']",数据分析师,10k-20k,1-3年
广州,雪松控股集团有限公司,"['领导好', '技能培训', '绩效奖金']",2000人以上,本科,不需要融资,开发/测试/运维类,其他,全职,23.117719,113.323274,"领导nic,团队有活力,项目挑战性",4108745,"['大数据', 'BI']",数据分析师,10k-20k,3-5年
合肥,飞友科技有限公司,"['节日礼物', '年度旅游', '管理规范', '五险一金']",150-500人,本科,A轮,开发/测试/运维类,移动互联网,全职,31.836033,117.232183,"周末双休,五险一金,年终奖金,境外旅游",2750352,['大数据'],数据分析（M）,4k-8k,1-3年
北京,北京字节跳动科技有限公司,"['扁平管理', '弹性工作', '大厨定制三餐', '就近租房补贴']",500-2000人,本科,C轮,产品/需求/项目类,"移动互联网,数据服务",全职,39.977067,39.977067,免费三餐，租房补贴，休闲下午茶，职业大牛，团队氛围好,3917690,[],数据分析师（统计模型方向）,12k-24k,1-3年
上海,深圳平安综合金融服务有限公司,[],2000人以上,本科,上市公司,开发/测试/运维类,"金融,数据服务",全职,31.238157,121.666906,"大平台,绩效奖金,免费体检,免费班车",3227471,"['金融', '算法', '数据挖掘']",数据分析岗（数据营销中心）,8k-15k,不限
北京,北京金山软件有限公司,"['年底双薪', '节日礼物', '技能培训', '绩效奖金']",2000人以上,本科,上市公司,开发/测试/运维类,移动互联网,全职,40.036741,116.32274,"技术氛围好,发展空间大,薪资待遇优,提供三餐",3916526,"['借贷', '互联网金融', '风控', '建模', '量化']",风险数据分析师/风险数据分析经理,18k-35k,3-5年
上海,上海二三四五网络科技有限公司,"['鼓励内部创业', '互联网百强', '亿万用户', '提倡男女恋爱']",500-2000人,本科,上市公司,开发/测试/运维类,"数据服务,移动互联网",全职,31.198981,121.603348,"平台大,领导授权大,数据量大,福利好",3670733,"['算法', '图像处理', '数据挖掘', '大数据', 'sas']",数据分析经理（贷后管理）,20k-30k,5-10年
北京,北京小川在线网络技术有限公司,"['技能培训', '连续创业团队', '年度旅游', '扁平管理']",50-150人,本科,B轮,开发/测试/运维类,移动互联网,全职,39.980092,116.368056,"成长空间大,大牛云集,高薪高股,不打卡",3948179,"['游戏', '社交', '文化娱乐', '数据挖掘', '机器学习']",数据分析,15k-30k,1-3年
北京,北京新东方迅程网络科技有限公司,"['年度旅游', '定期体检', '免费健身', '交通补助']",500-2000人,本科,不需要融资,产品/需求/项目类,"移动互联网,教育",全职,39.99426,115.99339,"在线教育,腾讯入资,新东方在线",3971731,"['数据挖掘', 'SPSS']",数据分析产品经理,25k-40k,3-5年
北京,新浪网技术（中国）有限公司,"['免费班车', '岗位晋升', '五险一金', '定期体检']",2000人以上,本科,上市公司,开发/测试/运维类,文化娱乐,全职,40.041543,116.276316,"大公司,班车,健身房",3390957,"['行业研究', '市场分析']",数据分析工程师,10k-20k,1-3年
北京,北京凤凰理理它信息技术有限公司,"['节日礼物', '技能培训', '股票期权', '带薪年假']",150-500人,本科,A轮,产品/需求/项目类,金融,全职,40.018298,116.471597,七险一金 绩效奖金 超nice领导带你飞,3351996,"['大数据', '数据管理']",数据分析与管理,10k-20k,1-3年
北京,北京斯图飞腾科技有限公司,"['弹性工作', '扁平管理', '五险一金', '朝阳行业']",15-50人,本科,A轮,开发/测试/运维类,数据服务,全职,39.913695,116.453373,"顶尖团队,五险一金,弹性工作,节日礼品",3434893,"['中级', '售前工程师']",数据分析师（售前岗）,8k-12k,1-3年
湛江,广州时代数据服务有限公司,[],150-500人,本科,A轮,开发/测试/运维类,数据服务,全职,0.0,0.0,"大数据,数据分析,数据挖掘,湛江移动",4119123,"['数据挖掘', '机器学习', 'SPSS', 'sas']",数据分析师,5k-9k,1-3年
厦门,厦门美图之家科技有限公司,"['节日礼物', '与大牛共事', '福利健全', '五险一金']",500-2000人,本科,上市公司,产品/需求/项目类,"移动互联网,硬件",全职,116.331398,39.897445,精英团队 弹性工作制 福利健全,3917580,"['大数据', 'BI']",数据分析师-潮自拍（厦门）,10k-20k,1-3年
北京,北京多来点信息技术有限公司,"['技能培训', '岗位晋升', '领导好', '带薪年假']",500-2000人,本科,不需要融资,产品/需求/项目类,"移动互联网,O2O",全职,39.94140907,116.35276,前景广阔、技术大牛、周末双休、带薪年假,4018199,"['本地生活', '运营', '数据挖掘']",数据分析师（中高级）,20k-30k,1-3年
南京,南京领添信息技术有限公司,"['节日礼物', '股票期权', '带薪年假', '绩效奖金']",500-2000人,大专,C轮,其他,"移动互联网,电子商务",全职,31.973879,118.75546,"周末双休,带薪年假,绩效奖金",4096213,"['电商', '物流', '仓储', 'SPSS', '数据管理']",物流数据分析专员,4k-6k,不限
北京,零氪信息技术（北京）有限公司,[],150-500人,本科,C轮,产品/需求/项目类,"医疗健康,数据服务",全职,39.98203682,116.31345115,技术挑战 医疗大数据平台 15薪,2578005,"['SPSS', '数据管理']",数据分析师,10k-20k,1-3年
北京,北京小米科技有限责任公司,"['快速成长', '免费班车', '扁平管理', '技能培训']",2000人以上,本科,D轮及以上,产品/需求/项目类,移动互联网,全职,40.0298,116.33649,"技术氛围,大平台",3890125,"['电商', '数据挖掘', 'SPSS']",商业数据分析师,20k-40k,5-10年
北京,北京金山软件有限公司,"['年底双薪', '节日礼物', '技能培训', '绩效奖金']",2000人以上,本科,上市公司,开发/测试/运维类,移动互联网,全职,40.036741,116.32274,"技术提升,14薪以上,提供三餐,年度旅行",3971593,"['大数据', '数据挖掘', '商业产品']",高级数据分析师,20k-35k,3-5年
上海,上海二三四五网络科技有限公司,"['鼓励内部创业', '互联网百强', '亿万用户', '提倡男女恋爱']",500-2000人,本科,上市公司,产品/需求/项目类,"数据服务,移动互联网",全职,31.173872,121.59765,"千万量级,上市公司,发挥空间大,团队和谐",3842344,"['金融', '业务运营', 'SPSS', 'sas']",数据分析师（渠道推广、APP分析）,10k-15k,1-3年
北京,北京小川在线网络技术有限公司,"['技能培训', '连续创业团队', '年度旅游', '扁平管理']",50-150人,本科,B轮,开发/测试/运维类,移动互联网,全职,39.980092,116.368056,"成长空间大,高薪高股,大牛云集,不打卡",3948187,"['文化娱乐', '算法', '数据挖掘', '机器学习', '深度学习']",高级数据分析师,25k-50k,3-5年
北京,北京斯图飞腾科技有限公司,"['弹性工作', '扁平管理', '五险一金', '朝阳行业']",15-50人,本科,A轮,市场/商务/销售类,数据服务,全职,39.919755,116.451487,"弹性工作,五险一金,顶尖团队,节日礼品",3895284,"['金融', '汽车', '大数据', '数据挖掘']",售前数据分析主管,8k-12k,1-3年
北京,北京小米科技有限责任公司,"['快速成长', '免费班车', '扁平管理', '技能培训']",2000人以上,本科,D轮及以上,市场/商务/销售类,移动互联网,全职,40.0298,116.33649,"餐补,补充医疗险,五险一金,年假",3629637,"['物流', '统计', 'SPSS']",运营经理（数据分析方向）,15k-20k,10年以上
上海,上海众调信息科技有限公司,"['带薪年假', '弹性工作', '节日礼物', '领导好']",50-150人,本科,A轮,开发/测试/运维类,移动互联网,全职,31.286827,121.504293,"交通便利,晋升空间,专家氛围,发展前景",3442976,"['金融', '汽车', '建模', '量化']",数据分析师,10k-20k,3-5年
杭州,杭州至美营销策划有限公司,"['节日礼物', '股票期权', '带薪年假', '绩效奖金']",150-500人,本科,不需要融资,产品/需求/项目类,电子商务,全职,30.315927,120.337777,"两次调薪,扁平化管理,办公环境好",4113233,"['电商', '大数据', '运营']",数据分析专员,5k-8k,1-3年
广州,广州富力地产股份有限公司,"['年底双薪', '通讯津贴', '包早、午餐', '定期体检']",2000人以上,本科,上市公司,运营,"移动互联网,电子商务",全职,23.117487,113.321796,优惠购房，亲属福利，员工饭堂，免费早午餐,1396191,[],数据分析,10k-20k,3-5年
杭州,福州有招网络技术有限公司,[],500-2000人,本科,未融资,开发/测试/运维类,"移动互联网,硬件",全职,30.271411,120.101163,MAC电脑,2656122,[],数据分析专家,30k-40k,5-10年
成都,成都智库二八六一信息技术有限公司,"['绩效奖金', '定期体检', '带薪年假', '扁平管理']",15-50人,本科,天使轮,开发/测试/运维类,"数据服务,移动互联网",全职,30.53872,104.056543,"定期体检,五险一金,每年涨薪,绩效奖励",4014639,"['搜索', '算法', '数据挖掘', '推荐', 'NLP']",数据分析师,8k-15k,1-3年
广州,广州汇电云联互联网科技有限公司,"['扁平化', '不打卡', '氛围好']",50-150人,本科,不需要融资,开发/测试/运维类,移动互联网,全职,23.118381,113.343874,"周末双休,五险一金,氛围开心",3989348,"['算法', '数据挖掘', '人工智能', 'python']",机器学习工程师（数据分析）,15k-20k,1-3年
北京,北京力天无限网络技术有限公司,"['绩效奖金', '五险一金', '带薪年假', '节日礼物']",150-500人,本科,B轮,开发/测试/运维类,移动互联网,全职,40.050056,116.300729,"上升空间大,奖金激励,六险一金,团队活动多",3603905,"['游戏', '数据挖掘']",高级数据分析,20k-30k,5-10年
上海,上海汇翼信息科技有限公司,"['股票期权', '带薪年假', '节日礼物', '弹性工作']",150-500人,本科,B轮,开发/测试/运维类,"移动互联网,企业服务",全职,31.19748,121.58383,团队攻高血厚、文化开放平等、待遇好福利佳,3892039,"['资深', '大数据', 'SPSS', 'sas']",数据分析经理,20k-30k,5-10年
上海,微贷（杭州）金融信息服务有限公司,"['年底双薪', '专项奖金', '绩效奖金', '岗位晋升']",2000人以上,本科,C轮,开发/测试/运维类,金融,全职,31.241288,121.506538,"扁平化,高端办公室,核心部门,丰厚福利",4106365,"['数据挖掘', '大数据', 'BI', 'SPSS']",数据分析师,15k-24k,3-5年
北京,凡普金科企业发展（上海）有限公司,"['年底双薪', '节日礼物', '技能培训', '带薪年假']",2000人以上,本科,不需要融资,开发/测试/运维类,金融,全职,39.922635,116.433367,"六险一金,扁平管理,公司正规,福利好",3946792,"['金融', '数据挖掘']",高级数据分析师,20k-40k,3-5年
北京,北京小米科技有限责任公司,"['快速成长', '免费班车', '扁平管理', '技能培训']",2000人以上,大专,D轮及以上,运营/编辑/客服,移动互联网,全职,40.026792,116.33733,"小米自有,晋升空间大,工作环境优,七险一金",3718574,"['高级', 'SPSS', '数据管理']",数据分析专员（分析客服数据方向）,6k-9k,1-3年
广州,广州富力地产股份有限公司,"['年底双薪', '通讯津贴', '包早、午餐', '定期体检']",2000人以上,本科,上市公司,开发/测试/运维类,"移动互联网,电子商务",全职,22.994261,112.993461,"年底双薪,购房优惠,员工饭堂,亲属福利",3739907,"['房产服务', '数据挖掘', '大数据', 'SPSS', 'sas']",数据分析师,10k-20k,3-5年
广州,广州汇电云联互联网科技有限公司,"['扁平化', '不打卡', '氛围好']",50-150人,本科,不需要融资,开发/测试/运维类,移动互联网,全职,23.118381,113.343874,"周末双休,五险一金",3989460,"['算法', '数据挖掘', '人工智能', 'python']",phyton高级工程师(机器学习、数据分析方向),15k-20k,1-3年
上海,上海汇翼信息科技有限公司,"['股票期权', '带薪年假', '节日礼物', '弹性工作']",150-500人,本科,B轮,产品/需求/项目类,"移动互联网,企业服务",全职,31.19748,121.58383,腾讯投资 定位明确 团队优秀 年底双薪,4104424,"['资深', '高级', 'BI', '商业', '业务运营']",数据分析负责人,25k-35k,5-10年
北京,北京善义善美科技有限公司,"['岗位晋升', '扁平管理', '个人成长快', '牛人多']",2000人以上,硕士,D轮及以上,产品/需求/项目类,O2O,全职,40.04284308,116.44040535,14薪资 互联网汽车巨头公司,4022025,"['商业', '大数据', '数据挖掘']",资深数据分析师,18k-36k,3-5年
深圳,上海金枣金融信息服务有限公司,"['技能培训', '股票期权', '专项奖金', '带薪年假']",50-150人,本科,A轮,市场/商务/销售类,金融,全职,22.53257,114.03159,"五险已经,带薪年假,不打卡,好玩的平台",3838124,"['金融', '数据挖掘', 'SPSS']",数据分析师,10k-20k,3-5年
广州,广州探迹科技有限公司,"['扁平管理', '弹性工作', '节日礼物', '领导好']",50-150人,本科,A轮,运营,"移动互联网,数据服务",实习,23.05042956,113.37992154,薪酬待遇佳，发展前景好，能力提升大,2266159,[],数据分析师（实习）,2k-4k,不限
深圳,上海海万信息科技股份有限公司,[],500-2000人,大专,不需要融资,产品/需求/项目类,"移动互联网,金融",全职,22.548627,114.06017,"旅游,年终奖,过节费,环境好",3918175,"['金融', '大数据', '数据挖掘']",数据分析,10k-20k,3-5年
上海,上海天戏互娱科技股份有限公司,[],50-150人,本科,上市公司,产品/需求/项目类,游戏,全职,30.99343,120.993998,"次时代品质,知名IP,团队氛围好",3642223,"['游戏', '大数据']",游戏运营产品数据分析师,10k-18k,3-5年
北京,海外网传媒有限公司,[],150-500人,本科,不需要融资,开发/测试/运维类,移动互联网,全职,39.918771,116.473378,"五险一金,商业保险,带薪年假,防暑降温费",4072134,"['高级', '中级', '算法', '机器学习', '大数据']",数据分析师,8k-12k,1-3年
北京,乐视网信息技术（北京）股份有限公司,"['股票期权', '交通补助', '通讯津贴', '带薪年假']",2000人以上,本科,上市公司,产品/需求/项目类,移动互联网,全职,39.934758,116.492605,交通补助；通讯补助；免费加班餐,4027218,['产品运营'],数据分析师/高级数据分析师,12k-24k,3-5年
杭州,厦门美图之家科技有限公司,"['节日礼物', '与大牛共事', '福利健全', '五险一金']",500-2000人,本科,上市公司,产品/需求/项目类,"移动互联网,硬件",全职,30.275092,120.126244,年轻的团队，上市公司，发展空间大,3223445,"['电商', 'BI', '专员', '数据挖掘']",数据分析师—杭州,13k-20k,1-3年
北京,北京小川在线网络技术有限公司,"['技能培训', '连续创业团队', '年度旅游', '扁平管理']",50-150人,本科,B轮,开发/测试/运维类,移动互联网,全职,39.980092,116.368056,"五险一金,大牛云集,不打卡,高薪高股",3872075,"['游戏', '社交', '文化娱乐', '运营', '大数据', 'php']",资深数据分析师,30k-60k,5-10年
上海,上海慧贤网络科技有限公司,"['股票期权', '扁平管理', '帅哥多', '节日礼物']",50-150人,本科,A轮,金融类,移动互联网,全职,31.193908,121.440641,"弹性时间,地铁周边,年终奖金,大牛云集",3656706,"['借贷', '建模', '大数据', '数据挖掘', '算法']",数据分析经理,20k-40k,3-5年
广州,嘉骏丽和文化传媒（北京）有限公司,"['股票期权', '绩效奖金', '美女多', '扁平管理']",50-150人,大专,不需要融资,运营/编辑/客服,"电子商务,文化娱乐",全职,22.995869,113.333767,"行业前景强,员工福利好,创业型团队,上升速度快",4085842,"['电商', '运营']",【神马惠选】急招数据分析专员,3k-5k,1年以下
北京,北京小米科技有限责任公司,"['快速成长', '免费班车', '扁平管理', '技能培训']",2000人以上,本科,D轮及以上,开发/测试/运维类,移动互联网,全职,40.0298,116.33649,"核心业务,优秀团队,期权激励,餐补班车",3651020,"['电商', '大数据', '数据挖掘', 'SQL', '数据开发']",数据分析工程师,15k-30k,3-5年
广州,广州富力地产股份有限公司,"['年底双薪', '通讯津贴', '包早、午餐', '定期体检']",2000人以上,本科,上市公司,技术,"移动互联网,电子商务",全职,23.117487,113.321796,优惠购房，亲属福利，员工饭堂，免费早午餐,1398352,[],BI数据分析师,10k-20k,1-3年
广州,广州汇电云联互联网科技有限公司,"['扁平化', '不打卡', '氛围好']",50-150人,本科,不需要融资,开发/测试/运维类,移动互联网,全职,23.118381,113.343874,"周末双休,五险一金,高温补贴,定期体检",3982340,"['大数据', '数据挖掘', 'python']",phyton高级工程师(数据分析方向),10k-20k,1-3年
广州,广州探迹科技有限公司,"['扁平管理', '弹性工作', '节日礼物', '领导好']",50-150人,本科,A轮,开发/测试/运维类,"移动互联网,数据服务",全职,23.0566,113.386397,"科技前沿,待遇优厚",3030864,"['大数据', '数据挖掘', 'SPSS', 'sas']",数据分析师,8k-15k,1-3年
深圳,上海海万信息科技股份有限公司,[],500-2000人,本科,不需要融资,开发/测试/运维类,"移动互联网,金融",全职,22.568264,114.059297,"年终奖,双休,过节费,旅游",3637090,"['hadoop', '算法', '数据仓库', '建模', '数据挖掘']",数据分析师,10k-15k,3-5年
上海,上海慧贤网络科技有限公司,"['股票期权', '扁平管理', '帅哥多', '节日礼物']",50-150人,本科,A轮,开发/测试/运维类,移动互联网,全职,31.193908,121.440641,"弹性时间,地铁周边,大牛云集,广阔前景",3388100,"['借贷', '大数据', '数据挖掘', '建模', '算法']",高级数据分析工程师,15k-30k,3-5年
北京,耀盛投资管理集团有限公司,"['午餐补助', '带薪年假', '绩效奖金']",150-500人,本科,不需要融资,开发/测试/运维类,"金融,移动互联网",全职,39.905543,116.471102,"五险一金,弹性工作,职业发展,年轻团队",3765700,"['金融', '数据挖掘', 'SPSS', 'sas', 'python']",数据分析师 风控方向,15k-25k,3-5年
北京,普信恒业科技发展（北京）有限公司,"['管理规范', '技能培训', '扁平管理', '弹性工作']",2000人以上,硕士,上市公司,产品/需求/项目类,金融,全职,0.0,0.0,"核心部门,精英团队,领导好,氛围轻松",4048596,"['大数据', 'BI', '业务分析', 'SPSS', 'python']",数据分析师,15k-25k,1-3年
北京,北京陌上花科技有限公司,"['股票期权', '岗位晋升', '弹性工作', '绩效奖金']",15-50人,本科,B轮,产品/需求/项目类,移动互联网,全职,39.978272,116.313649,"股票期权,绩效奖金,技术大牛,弹性工作",3926353,"['广告营销', '大数据', '商业', '数据挖掘', 'SPSS']",数据分析师,15k-30k,1-3年
上海,阿基米德（上海）传媒有限公司,"['年底双薪', '带薪年假', '绩效奖金', '扁平管理']",50-150人,硕士,B轮,开发/测试/运维类,"移动互联网,电子商务",全职,31.19704,121.40759,"13薪,补充公积金,商业保险,饭补",2883629,"['中级', '数据挖掘', '机器学习', '大数据']",高级数据分析师,15k-25k,3-5年
杭州,杭州捕翼网络科技有限公司,"['帅哥多', '领导好', '美女多', '五险一金']",150-500人,本科,C轮,产品/需求/项目类,"移动互联网,金融",全职,30.276311,119.997013,"双休,五险一金,弹性时间,环境舒适",3988269,['数据挖掘'],数据分析师,10k-20k,3-5年
广州,广州猫玩网络科技有限公司,"['年底双薪', '股票期权', '绩效奖金', '带薪年假']",150-500人,大专,不需要融资,产品/需求/项目类,游戏,全职,23.125725,113.340117,"五险一金,年终奖,项目奖金,下午茶",4118649,"['游戏', '高级', '数据挖掘', 'SPSS']",数据分析师,6k-12k,1-3年
杭州,浙江每日互动网络科技股份有限公司,"['绩效奖金', '股票期权', '年底双薪', '专项奖金']",150-500人,本科,D轮及以上,开发/测试/运维类,移动互联网,全职,30.2903098,120.11455979,16-18薪 互联网独角兽 发展前景佳,4065238,"['中级', '数据挖掘']",大数据分析工程师,10k-15k,1-3年
上海,唯品会（中国）有限公司,"['技能培训', '节日礼物', '绩效奖金', '岗位晋升']",2000人以上,本科,上市公司,产品/需求/项目类,电子商务,全职,0.0,0.0,"前景好,福利优",4118616,"['大数据', '数据挖掘']",资深数据分析师（数据产品）,25k-50k,5-10年
杭州,杭州端点网络科技有限公司,"['前沿技术', '氛围轻松', 'Geek', '股票期权']",150-500人,本科,A轮,产品/需求/项目类,"电子商务,O2O",全职,30.129616,120.081186,机器学习算,3888540,"['高级', '专员', '大数据', 'BI']",数据分析师,20k-30k,3-5年
广州,广州富力地产股份有限公司,"['年底双薪', '通讯津贴', '包早、午餐', '定期体检']",2000人以上,本科,上市公司,开发/测试/运维类,"移动互联网,电子商务",全职,22.994261,112.993461,"年底双薪,年终奖金,购房优惠,亲属福利",3859711,"['数据挖掘', '大数据']",系统数据分析师,10k-20k,3-5年
上海,上海慧贤网络科技有限公司,"['股票期权', '扁平管理', '帅哥多', '节日礼物']",50-150人,本科,A轮,金融类,移动互联网,全职,31.193908,121.440641,"弹性时间,地铁周边,扁平管理,大牛云集",3390874,"['借贷', '建模', '大数据', '数据挖掘', '算法']",高级数据分析师,20k-35k,3-5年
北京,耀盛投资管理集团有限公司,"['午餐补助', '带薪年假', '绩效奖金']",150-500人,大专,不需要融资,开发/测试/运维类,"金融,移动互联网",全职,39.905251,116.471021,"五险一金,弹性工作,各种补助,带薪假期",3424300,"['算法', '数据挖掘', '机器学习', '图形处理']",数据分析工程师,20k-30k,3-5年
